Company_Name,Category,Address,Url,Latitude,Longitude,Territory
Apollo Clinic,Medical clinic,"29 Old Tiruchanoor Road, near Lakshmipuram Cirle, Tirupati, Andhra Pradesh 517501, India",https://www.google.co.kr/maps/place/Apollo+Clinic/data=!4m5!3m4!1s0x3a4d4ba142419fc9:0xf4d399f0b633bbe6!8m2!3d13.6231082!4d79.4301174?authuser=0&hl=en&rclk=1,13.6231082,79.4301174,Andhra Pradesh
Apollo Clinic,Medical clinic,"50–81–1/2 Plot 5 - 1 Sheethammapeta, Andhra Pradesh 530016, India",https://www.google.co.kr/maps/place/Apollo+Clinic/data=!4m5!3m4!1s0x3a39433afe71759f:0xd71bcfa95bbe6071!8m2!3d17.7298328!4d83.3066024?authuser=0&hl=en&rclk=1,17.7298328,83.3066024,Andhra Pradesh
Queen's NRI Hospital,Hospital,"d.no, 50-53-14, Gurudwara Rd, Balayya Sastri Layout, Seethammadara, Visakhapatnam, Andhra Pradesh 530013, India",https://www.google.co.kr/maps/place/Queen's+NRI+Hospital/data=!4m5!3m4!1s0x3a3943311226a1ed:0x2f12873df4d18d45!8m2!3d17.7404065!4d83.3081929?authuser=0&hl=en&rclk=1,17.7404065,83.3081929,Andhra Pradesh
Manipal Clinics,Medical clinic,"17.686543, 83.203952, India",https://www.google.co.kr/maps/place/Manipal+Clinics/data=!4m5!3m4!1s0x3a396906c10574c3:0x2c845e1ce6f92efb!8m2!3d17.686543!4d83.203952?authuser=0&hl=en&rclk=1,17.686543,83.203952,Andhra Pradesh
Apollo Clinic,Medical clinic,"Murali Nagar St, Muralinagar, Madhavadhara, Visakhapatnam, Andhra Pradesh 530007, India",https://www.google.co.kr/maps/place/Apollo+Clinic/data=!4m5!3m4!1s0x3a395d53afdb1261:0x6eca82f97b3b0713!8m2!3d17.7463089!4d83.2580708?authuser=0&hl=en&rclk=1,17.7463089,83.2580708,Andhra Pradesh
"CARE Hospitals - Ram Nagar, Visakhapatnam",Hospital,"AS Raja Complex, 10-50-11/5, Waltair Main Rd, Ram Nagar, Visakhapatnam, Andhra Pradesh 530002, India","https://www.google.co.kr/maps/place/CARE+Hospitals+-+Ram+Nagar,+Visakhapatnam/data=!4m5!3m4!1s0x3a394315702cc723:0x62489f0d151875b1!8m2!3d17.7202776!4d83.3126239?authuser=0&hl=en&rclk=1",17.7202776,83.3126239,Andhra Pradesh
Nalluri Nursing Home,Hospital,"Kothapatnam Road, MaratiPalem, Ongole, Andhra Pradesh 523001, India",https://www.google.co.kr/maps/place/Nalluri+Nursing+Home/data=!4m5!3m4!1s0x3a4b01019ac93fbd:0x8ad3a9982a0cc570!8m2!3d15.5048795!4d80.0513069?authuser=0&hl=en&rclk=1,15.5048795,80.0513069,Andhra Pradesh
Health clinic,Medical clinic,"MF64+CCM, Nagaraju Gunta, Andhra Pradesh 523241, India",https://www.google.co.kr/maps/place/Health+clinic/data=!4m5!3m4!1s0x3a4ad3840d078da3:0x24f2594988a4ae01!8m2!3d15.6610855!4d79.456058?authuser=0&hl=en&rclk=1,15.6610855,79.456058,Andhra Pradesh
"కడియాల ఫిజియోథెరపీ క్లినిక్ Kadiyala Physiotherapy Clinic, కడియాల ఫిజియో థెరపి క్లినిక్",Hospital,"Raja gari kota, Barampet, Narasaraopeta, Andhra Pradesh 522601, India","https://www.google.co.kr/maps/place/%E0%B0%95%E0%B0%A1%E0%B0%BF%E0%B0%AF%E0%B0%BE%E0%B0%B2+%E0%B0%AB%E0%B0%BF%E0%B0%9C%E0%B0%BF%E0%B0%AF%E0%B1%8B%E0%B0%A5%E0%B1%86%E0%B0%B0%E0%B0%AA%E0%B1%80+%E0%B0%95%E0%B1%8D%E0%B0%B2%E0%B0%BF%E0%B0%A8%E0%B0%BF%E0%B0%95%E0%B1%8D+Kadiyala+Physiotherapy+Clinic,+%E0%B0%95%E0%B0%A1%E0%B0%BF%E0%B0%AF%E0%B0%BE%E0%B0%B2+%E0%B0%AB%E0%B0%BF%E0%B0%9C%E0%B0%BF%E0%B0%AF%E0%B1%8B+%E0%B0%A5%E0%B1%86%E0%B0%B0%E0%B0%AA%E0%B0%BF+%E0%B0%95%E0%B1%8D%E0%B0%B2%E0%B0%BF%E0%B0%A8%E0%B0%BF%E0%B0%95%E0%B1%8D/data=!4m5!3m4!1s0x3a4a80e219d5231d:0xa721fabf6ca1af6a!8m2!3d16.2382318!4d80.053335?authuser=0&hl=en&rclk=1",16.2382318,80.053335,Andhra Pradesh
AKSHAYA HOSPITAL,Hospital,"43-9-201, SLV Arcade, opp. Sreekanya Building, Theatre, Railway New Colony, Visakhapatnam, Andhra Pradesh 530016, India",https://www.google.co.kr/maps/place/AKSHAYA+HOSPITAL/data=!4m5!3m4!1s0x3a3943275d4ee569:0xfb64bf4850a8c704!8m2!3d17.727636!4d83.2940483?authuser=0&hl=en&rclk=1,17.727636,83.2940483,Andhra Pradesh
Apollo clinic,Hospital,"Kundula road, Krishna Nagar Main Rd, Guntur, Andhra Pradesh 522006, India",https://www.google.co.kr/maps/place/Apollo+clinic/data=!4m5!3m4!1s0x3a4a7523addca7d9:0x264977d94da1c996!8m2!3d16.312824!4d80.4206353?authuser=0&hl=en&rclk=1,16.312824,80.4206353,Andhra Pradesh
Amara Hospital,Hospital,"NH716, Karakambadi Rural, Andhra Pradesh 517520, India",https://www.google.co.kr/maps/place/Amara+Hospital/data=!4m5!3m4!1s0x3a4d4a4c06fcaa9d:0x93e13d62cf6394a8!8m2!3d13.6646284!4d79.5148259?authuser=0&hl=en&rclk=1,13.6646284,79.5148259,Andhra Pradesh
Miot International,Diagnostic center,"JCQH+724, Korlagunta, Tirupati, Andhra Pradesh 517501, India",https://www.google.co.kr/maps/place/Miot+International/data=!4m5!3m4!1s0x3a4d4baa50ebfb13:0xe80282cd76732bdf!8m2!3d13.6381365!4d79.4275763?authuser=0&hl=en&rclk=1,13.6381365,79.4275763,Andhra Pradesh
Image Poly Clinic,Medical clinic,"8C59+Q74, Krishna Nagar, Guntur, Andhra Pradesh 522006, India",https://www.google.co.kr/maps/place/Image+Poly+Clinic/data=!4m5!3m4!1s0x3a4a757b9856589f:0x216818009cb8b472!8m2!3d16.3093838!4d80.41821?authuser=0&hl=en&rclk=1,16.3093838,80.41821,Andhra Pradesh
Rainbow Children's Hospital & BirthRight by Rainbow,Children's hospital,"currency nagar 48-10-12/2A Service Road Beside Aahaar Food Court, currency nagar, Vijayawada, Andhra Pradesh 520008, India",https://www.google.co.kr/maps/place/Rainbow+Children's+Hospital+%26+BirthRight+by+Rainbow/data=!4m5!3m4!1s0x116a821bd69a179f:0xd24e701c7145705f!8m2!3d16.5176877!4d80.6740052?authuser=0&hl=en&rclk=1,16.5176877,80.6740052,Andhra Pradesh
VenkataReddy RMP hospital,Occupational health service,"R86P+5V6, Jandrapeta, Chirala, Andhra Pradesh 523165, India",https://www.google.co.kr/maps/place/VenkataReddy+RMP+hospital/data=!4m5!3m4!1s0x3a4a444f25a8473d:0xd5f28112575801b3!8m2!3d15.8104186!4d80.3371315?authuser=0&hl=en&rclk=1,15.8104186,80.3371315,Andhra Pradesh
Rainbow Children's Clinic and Birthright by Rainbow Clinic,Children's hospital,"29-4-4, Kodandarami Reddy St, Venkatswara Rao Street, Governor Peta, Vijayawada, Andhra Pradesh 520001, India",https://www.google.co.kr/maps/place/Rainbow+Children's+Clinic+and+Birthright+by+Rainbow+Clinic/data=!4m5!3m4!1s0x3a35f00048b2f779:0x5313cfe969630f59!8m2!3d16.5116207!4d80.6308629?authuser=0&hl=en&rclk=1,16.5116207,80.6308629,Andhra Pradesh
Apollo Clinic Chittoor,Medical Center,"Thotapalyam, Chittoor, Andhra Pradesh 517001, India",https://www.google.co.kr/maps/place/Apollo+Clinic+Chittoor/data=!4m5!3m4!1s0x3bad5c02ca590cb7:0xfa3286320641476!8m2!3d13.2154895!4d79.0985889?authuser=0&hl=en&rclk=1,13.2154895,79.0985889,Andhra Pradesh
NAVA JEEVAN CLINIC,Hospital,"KEERTHI DELUXE, opposite Addanki Road, Kothapeta, Vinukonda, Andhra Pradesh 522647, India",https://www.google.co.kr/maps/place/NAVA+JEEVAN+CLINIC/data=!4m5!3m4!1s0x3a4a962bacce53ab:0x4c6026abe1ea03ab!8m2!3d16.0489806!4d79.7427921?authuser=0&hl=en&rclk=1,16.0489806,79.7427921,Andhra Pradesh
Mukhyamantri Aarogya Kendram,Government hospital,"F3Q3+PGR, Annavarappadu Colony, Ongole, Andhra Pradesh 523001, India",https://www.google.co.kr/maps/place/Mukhyamantri+Aarogya+Kendram/data=!4m5!3m4!1s0x3a4b00e02940ac81:0xea08865528f15f37!8m2!3d15.4893647!4d80.0537755?authuser=0&hl=en&rclk=1,15.4893647,80.0537755,Andhra Pradesh
Dr. Mohan's Diabetes Specialities Centre,Diabetes center,"First Floor 78, 3-8, Morampudi Road RTC Bus Complex, Rajahmundry, Andhra Pradesh 533101, India",https://www.google.co.kr/maps/place/Dr.+Mohan's+Diabetes+Specialities+Centre/data=!4m5!3m4!1s0x3a37a3d095e04c33:0xd77b7b11925e16e5!8m2!3d17.0007847!4d81.7907102?authuser=0&hl=en&rclk=1,17.0007847,81.7907102,Andhra Pradesh
Care Hospital,Private hospital,"29-29-6, Suryaraopeta, Vijayawada, Andhra Pradesh 520002, India",https://www.google.co.kr/maps/place/Care+Hospital/data=!4m5!3m4!1s0x3a35fab1403de667:0xe1753767f6875981!8m2!3d16.5098835!4d80.6354653?authuser=0&hl=en&rclk=1,16.5098835,80.6354653,Andhra Pradesh
Sree Ramadevi Multi Super Speciality Hospital,Medical clinic,"T.S 82 Sairam Street, Tirupati, Andhra Pradesh 517501, India",https://www.google.co.kr/maps/place/Sree+Ramadevi+Multi+Super+Speciality+Hospital/data=!4m5!3m4!1s0x3a4d4b03ab15d665:0xba2feee5e801c784!8m2!3d13.6380046!4d79.4171787?authuser=0&hl=en&rclk=1,13.6380046,79.4171787,Andhra Pradesh
"Ramanas Homoeo Care, Cure Follows",Medical clinic,"Near RTC busstand, opposite mourya lodge, Ongole, Andhra Pradesh 523001, India","https://www.google.co.kr/maps/place/Ramanas+Homoeo+Care,+Cure+Follows/data=!4m5!3m4!1s0x3a4b01367581c577:0x2924fa0175a4bace!8m2!3d15.5116352!4d80.0421712?authuser=0&hl=en&rclk=1",15.5116352,80.0421712,Andhra Pradesh
అమ్మ క్లినిక్,Hospital,"RQ58+29F, Ullagallu, Andhra Pradesh 523265, India",https://www.google.co.kr/maps/place/%E0%B0%85%E0%B0%AE%E0%B1%8D%E0%B0%AE+%E0%B0%95%E0%B1%8D%E0%B0%B2%E0%B0%BF%E0%B0%A8%E0%B0%BF%E0%B0%95%E0%B1%8D/data=!4m5!3m4!1s0x3a4ae9924fffffff:0x50827902ba76da4a!8m2!3d15.8075597!4d79.7659219?authuser=0&hl=en&rclk=1,15.8075597,79.7659219,Andhra Pradesh
R M P Clinic,Hospital,"R M P Clinic, Singanapalem Mundlamur Road, Mundlamuru, Andhra Pradesh 523265, India",https://www.google.co.kr/maps/place/R+M+P+Clinic/data=!4m5!3m4!1s0x3a4aef8d354e7e95:0x24ce1289f81ae9fe!8m2!3d15.800615!4d79.83714?authuser=0&hl=en&rclk=1,15.800615,79.83714,Andhra Pradesh
Dr. Mohan's Diabetes Specialities Centre,Diabetes center,"40-5-11, Rajkamal Towers, Tikkle Rd, opp. HDFC Bank, Labbipet, Vijayawada, Andhra Pradesh 520010, India",https://www.google.co.kr/maps/place/Dr.+Mohan's+Diabetes+Specialities+Centre/data=!4m5!3m4!1s0x3a35faba062f3a7f:0xe996dd21976bb0c4!8m2!3d16.5012228!4d80.6487634?authuser=0&hl=en&rclk=1,16.5012228,80.6487634,Andhra Pradesh
Verenary Hospital,Hospital,"sri lakshmi narasimha swamy tempel Road,, Marripudi, Andhra Pradesh 523240, India",https://www.google.co.kr/maps/place/Verenary+Hospital/data=!4m5!3m4!1s0x3a4b20ca9ded7027:0x6b46a95bb78315f5!8m2!3d15.5146702!4d79.6520443?authuser=0&hl=en&rclk=1,15.5146702,79.6520443,Andhra Pradesh
Dr. Cherukuri Venkateswarlu MBBS Hospital,Hospital,"State Highway 53, Chimakurthy, Andhra Pradesh 523226, India",https://www.google.co.kr/maps/place/Dr.+Cherukuri+Venkateswarlu+MBBS+Hospital/data=!4m5!3m4!1s0x3a4ae2578df2f275:0x8f7d08398a09d3a9!8m2!3d15.5835993!4d79.8728129?authuser=0&hl=en&rclk=1,15.5835993,79.8728129,Andhra Pradesh
sana firstaid clinic,Hospital,"Nehru Nagar 2nd Line, Macherla, Andhra Pradesh 522426, India",https://www.google.co.kr/maps/place/sana+firstaid+clinic/data=!4m5!3m4!1s0x3a354d94dcd08f3d:0x8baa02b98e4780da!8m2!3d16.4756708!4d79.4466863?authuser=0&hl=en&rclk=1,16.4756708,79.4466863,Andhra Pradesh
Sri Lakshmi Speciality Hospital,Hospital,"4-16-94, Timber Depot Road, Nagarampalem Near Machan Dargah, Andhra Pradesh 522004, India",https://www.google.co.kr/maps/place/Sri+Lakshmi+Speciality+Hospital/data=!4m5!3m4!1s0x3a4a7538b5b8f407:0xb12723fd66c95457!8m2!3d16.2952941!4d80.4312072?authuser=0&hl=en&rclk=1,16.2952941,80.4312072,Andhra Pradesh
Bhavisya Neuro Psychiatry Clinic,Neurologist,"Sixty Feet Rd, Venkateswara Nagar, Ongole, Andhra Pradesh 523001, India",https://www.google.co.kr/maps/place/Bhavisya+Neuro+Psychiatry+Clinic/data=!4m5!3m4!1s0x3a4b01a88c0235b5:0xc561bfcdd1686cba!8m2!3d15.5129938!4d80.0431833?authuser=0&hl=en&rclk=1,15.5129938,80.0431833,Andhra Pradesh
Thirumalamma,Hospital,"Guntur, Andhra Pradesh 522660, India",https://www.google.co.kr/maps/place/Thirumalamma/data=!4m5!3m4!1s0x3a4ac00000000001:0x871223943adb28a6!8m2!3d15.9128998!4d79.7399875?authuser=0&hl=en&rclk=1,15.9128998,79.7399875,Andhra Pradesh
Seven Hills Hospital,General hospital,"Rockdale Layout, Waltair Main Rd, Ram Nagar, Visakhapatnam, Andhra Pradesh 530002, India",https://www.google.co.kr/maps/place/Seven+Hills+Hospital/data=!4m5!3m4!1s0x3a39691851b88ab7:0x122ec1f5747fbce8!8m2!3d17.7172617!4d83.3093477?authuser=0&hl=en&rclk=1,17.7172617,83.3093477,Andhra Pradesh
"Poornodaya homoeo clinic, Gurazala, Guntur",Hospital,"Guntur, Andhra Pradesh 522660, India","https://www.google.co.kr/maps/place/Poornodaya+homoeo+clinic,+Gurazala,+Guntur/data=!4m5!3m4!1s0x3a4ac00000000001:0x75e2d5b569c7c0f!8m2!3d15.9128998!4d79.7399875?authuser=0&hl=en&rclk=1",15.9128998,79.7399875,Andhra Pradesh
Dr. Raju's Mind Care Center,Neurologist,"Kurnool Road, near State Bank Of India, Ongole, Andhra Pradesh 523002, India",https://www.google.co.kr/maps/place/Dr.+Raju's+Mind+Care+Center/data=!4m5!3m4!1s0x3a4b01a251d213c1:0xb497ad70063d50a7!8m2!3d15.5171739!4d80.0334246?authuser=0&hl=en&rclk=1,15.5171739,80.0334246,Andhra Pradesh
Santi Clinic,Hospital,"Perala Rd, Perala, Chirala, Andhra Pradesh 523157, India",https://www.google.co.kr/maps/place/Santi+Clinic/data=!4m5!3m4!1s0x3a4a4419436e78b1:0x3a534bd3f5d99423!8m2!3d15.8303428!4d80.3591879?authuser=0&hl=en&rclk=1,15.8303428,80.3591879,Andhra Pradesh
Baiyra Prasadharavu Free Clinic,Free clinic,"Purushottapatnam, Chilakaluripet, Andhra Pradesh, India",https://www.google.co.kr/maps/place/Baiyra+Prasadharavu+Free+Clinic/data=!4m5!3m4!1s0x3a4a631ba14f94ed:0x468dea351c2953db!8m2!3d16.0863059!4d80.150142?authuser=0&hl=en&rclk=1,16.0863059,80.150142,Andhra Pradesh
"RAMU HOSPITAL, MARTUR",Hospital,"JAMPANI BULLAIAH COMPLEX NH-16 SERVICE ROAD TOWARDS CHILAKALURIPET, Martur, Andhra Pradesh 523301, India","https://www.google.co.kr/maps/place/RAMU+HOSPITAL,+MARTUR/data=!4m5!3m4!1s0x3a4a611c1aff5e07:0xc5d20f5ed0d4c9cf!8m2!3d15.9866923!4d80.1038736?authuser=0&hl=en&rclk=1",15.9866923,80.1038736,Andhra Pradesh
Dr. Mohan's Diabetes Specialities Centre,Diabetes center,"No. 23-8-49/12, First Floor, AIR Bypass Rd, Jayashankar Nagar, Tirupati, Andhra Pradesh 517501, India",https://www.google.co.kr/maps/place/Dr.+Mohan's+Diabetes+Specialities+Centre/data=!4m5!3m4!1s0x3a4d4b524b0ed6a5:0xb6ddd6e8d80af46c!8m2!3d13.622194!4d79.41485?authuser=0&hl=en&rclk=1,13.622194,79.41485,Andhra Pradesh
Hospital,Hospital,"QXG2+6CX, Kotikalpudi, Andhra Pradesh 523201, India",https://www.google.co.kr/maps/place/Hospital/data=!4m5!3m4!1s0x3a4af04e48b1512d:0x69def4a6bec1d5ae!8m2!3d15.7756061!4d79.9511077?authuser=0&hl=en&rclk=1,15.7756061,79.9511077,Andhra Pradesh
RAMESH HOSPITALS,Medical clinic,"Uppu Rama Rao St, Ramachandra Rao Pet, Eluru, Andhra Pradesh 534002, India",https://www.google.co.kr/maps/place/RAMESH+HOSPITALS/data=!4m5!3m4!1s0x3a3614c8fc566217:0xd148ebabd8fe2fa8!8m2!3d16.7111146!4d81.1008053?authuser=0&hl=en&rclk=1,16.7111146,81.1008053,Andhra Pradesh
Supraja Vidya Shala Child Specialist,Hospital,"QMCM+J2H, Darsi, Andhra Pradesh 523247, India",https://www.google.co.kr/maps/place/Supraja+Vidya+Shala+Child+Specialist/data=!4m5!3m4!1s0x3a4ac3a7f2fb4985:0x125aa3b4d855ee45!8m2!3d15.7715673!4d79.6826175?authuser=0&hl=en&rclk=1,15.7715673,79.6826175,Andhra Pradesh
Hospital,Hospital,"2GM2+V33, Medapi, Andhra Pradesh 523326, India",https://www.google.co.kr/maps/place/Hospital/data=!4m5!3m4!1s0x3a4ab17abc9ca26f:0xe4270f8ac8b0628!8m2!3d16.0346355!4d79.5001733?authuser=0&hl=en&rclk=1,16.0346355,79.5001733,Andhra Pradesh
RMP,Hospital,"Singanapalem road, Mundlamuru, Andhra Pradesh 523265, India",https://www.google.co.kr/maps/place/RMP/data=!4m5!3m4!1s0x3a4aef25c6123c1f:0xed2dace9124da9ad!8m2!3d15.8027908!4d79.8338761?authuser=0&hl=en&rclk=1,15.8027908,79.8338761,Andhra Pradesh
Rama Duhita Hospital,Hospital,"Guntur, Andhra Pradesh 522660, India",https://www.google.co.kr/maps/place/Rama+Duhita+Hospital/data=!4m5!3m4!1s0x3a4ac00000000001:0xa956e383c979a07b!8m2!3d15.9128998!4d79.7399875?authuser=0&hl=en&rclk=1,15.9128998,79.7399875,Andhra Pradesh
Deepthi Clinic,General practitioner,"Kothapeta, Guntur, Andhra Pradesh, India",https://www.google.co.kr/maps/place/Deepthi+Clinic/data=!4m5!3m4!1s0x3a4a754b4b99cbb1:0x6161dcad931045f8!8m2!3d16.299528!4d80.45469?authuser=0&hl=en&rclk=1,16.299528,80.45469,Andhra Pradesh
Sreshta Children Hospital and vaccination center,Children's hospital,"Sixty Feet Rd, Satyanarayana Puram, Venkateswara Nagar, Ongole, Andhra Pradesh 523001, India",https://www.google.co.kr/maps/place/Sreshta+Children+Hospital+and+vaccination+center/data=!4m5!3m4!1s0x3a4b01a8c6b4c67b:0x688834e3819578a5!8m2!3d15.5142008!4d80.043899?authuser=0&hl=en&rclk=1,15.5142008,80.043899,Andhra Pradesh
Gaythri Clinic,Hospital,"Guntur, Andhra Pradesh 522626, India",https://www.google.co.kr/maps/place/Gaythri+Clinic/data=!4m5!3m4!1s0x3a4a883ac1543e57:0x18159c0c27f18656!8m2!3d16.0819686!4d80.0859509?authuser=0&hl=en&rclk=1,16.0819686,80.0859509,Andhra Pradesh
Primary Govt. Hospital,Hospital,"PR4V+PCG, Andhra Pradesh 523264, India",https://www.google.co.kr/maps/place/Primary+Govt.+Hospital/data=!4m5!3m4!1s0x3a4ae5c2f82364dd:0x53d410eba255afe5!8m2!3d15.7068213!4d79.8435722?authuser=0&hl=en&rclk=1,15.7068213,79.8435722,Andhra Pradesh
Aayush NRI LEPL Healthcare Pvt. Ltd.,Private hospital,"# 48-13-3 & 3A Ring Road, opp. Siddhartha Medical College, Sri Ramachandra Nagar, Vijayawada, Andhra Pradesh 520008, India",https://www.google.co.kr/maps/place/Aayush+NRI+LEPL+Healthcare+Pvt.+Ltd./data=!4m5!3m4!1s0x3a35fac40fffffff:0x9cfcf6205b43c6ff!8m2!3d16.517483!4d80.6750971?authuser=0&hl=en&rclk=1,16.517483,80.6750971,Andhra Pradesh
CMC Hospital,Hospital,"Vellore - Chittoor Rd, Valliappa Nagar, Kalagatur, Chittoor, Andhra Pradesh 517002, India",https://www.google.co.kr/maps/place/CMC+Hospital/data=!4m5!3m4!1s0x3bad5c6ce4d2b3d5:0xb0b4126bfc64bcf4!8m2!3d13.1327913!4d79.1137555?authuser=0&hl=en&rclk=1,13.1327913,79.1137555,Andhra Pradesh
Amma Hospital Rmp Sk hussen,Hospital,"RQ48+9GF, Ullagallu, Andhra Pradesh 523265, India",https://www.google.co.kr/maps/place/Amma+Hospital+Rmp+Sk+hussen/data=!4m5!3m4!1s0x3a4ae993b97f3de9:0x316a4203fabe6de8!8m2!3d15.805939!4d79.766289?authuser=0&hl=en&rclk=1,15.805939,79.766289,Andhra Pradesh
Dr.Raju First Aid Clinic,Hospital,"Unnamed Road, Kommala Padu, Andhra Pradesh 523303, India",https://www.google.co.kr/maps/place/Dr.Raju+First+Aid+Clinic/data=!4m5!3m4!1s0x3a4a8e6d1c9371f9:0x5ed877e76383ada8!8m2!3d16.029657!4d79.9436398?authuser=0&hl=en&rclk=1,16.029657,79.9436398,Andhra Pradesh
Aayush Hospitals,Private hospital,"48-13-3 3A Ring Road Opp.Siddhartha Medical College, Sri Ramachandra Nagar, Vijayawada, Andhra Pradesh 520008, India",https://www.google.co.kr/maps/place/Aayush+Hospitals/data=!4m5!3m4!1s0x3a35e52a588982d3:0x347b24cb13754346!8m2!3d16.517483!4d80.675097?authuser=0&hl=en&rclk=1,16.517483,80.675097,Andhra Pradesh
K R Hospital,Private hospital,"KT Rd, near Indian Oil Petrol pump, Srinivasa Nagar, Varadaraj Nagar, Tirupati, Andhra Pradesh 517501, India",https://www.google.co.kr/maps/place/K+R+Hospital/data=!4m5!3m4!1s0x3a4d4b02ffffffff:0x3f41c0be3e8054a7!8m2!3d13.6428796!4d79.4179301?authuser=0&hl=en&rclk=1,13.6428796,79.4179301,Andhra Pradesh
QUEEN'S NRI HOSPITAL,Hospital,"Srinivasa Nagar, Chinna Veedhi, Santha Pet, Vizianagaram, Andhra Pradesh 535001, India",https://www.google.co.kr/maps/place/QUEEN'S+NRI+HOSPITAL/data=!4m5!3m4!1s0x3a3be55dec206273:0x2dca4501667d201a!8m2!3d18.1176058!4d83.401222?authuser=0&hl=en&rclk=1,18.1176058,83.401222,Andhra Pradesh
Kranthi Nursing Home(Phaneendra Babu Hospital),Medical clinic,"Bhavani center, Government Hospital Rd, Kotikalapudi, Addanki, Andhra Pradesh 523201, India",https://www.google.co.kr/maps/place/Kranthi+Nursing+Home(Phaneendra+Babu+Hospital)/data=!4m5!3m4!1s0x3a4af1715fd586fd:0xc82f2413a40d03b8!8m2!3d15.8137108!4d79.9710254?authuser=0&hl=en&rclk=1,15.8137108,79.9710254,Andhra Pradesh
Private medical clinic,Hospital,"3M78+H55, Malakapalli, Andhra Pradesh 534340, India",https://www.google.co.kr/maps/place/Private+medical+clinic/data=!4m5!3m4!1s0x3a37a99ee50d89b7:0xe74315f726f241f7!8m2!3d17.0638803!4d81.665477?authuser=0&hl=en&rclk=1,17.0638803,81.665477,Andhra Pradesh
"Sri Sathya Sai General Hospital, Prasanthi Nilayam",Hospital,"Prasanthi Nilayam, Puttaparthi Main Rd, Anantapur District, Puttaparthi, Andhra Pradesh 515134, India","https://www.google.co.kr/maps/place/Sri+Sathya+Sai+General+Hospital,+Prasanthi+Nilayam/data=!4m5!3m4!1s0x3bb164ca4df4a9df:0x5003751c896dbdc2!8m2!3d14.1631961!4d77.8112936?authuser=0&hl=en&rclk=1",14.1631961,77.8112936,Andhra Pradesh
Hospital,Hospital,"Rama talkies line Macherla post & mandal, Andhra Pradesh 522426, India",https://www.google.co.kr/maps/place/Hospital/data=!4m5!3m4!1s0x3a354d97b751b825:0xe6eaf2d3abd8db27!8m2!3d16.4770759!4d79.4387805?authuser=0&hl=en&rclk=1,16.4770759,79.4387805,Andhra Pradesh
Govt Hospital,Hospital,"VHRQ+37M, Namassivaya Puram, Andhra Pradesh 523304, India",https://www.google.co.kr/maps/place/Govt+Hospital/data=!4m5!3m4!1s0x3a4ac793d99fb79f:0xc91f792f4d8601e6!8m2!3d15.890204!4d79.588165?authuser=0&hl=en&rclk=1,15.890204,79.588165,Andhra Pradesh
Hospital,Hospital,"FV6C+FGH, Janapadu, Andhra Pradesh 522413, India",https://www.google.co.kr/maps/place/Hospital/data=!4m5!3m4!1s0x3a35659c4a2134c7:0xb69904a014c85f8d!8m2!3d16.4611796!4d79.8713491?authuser=0&hl=en&rclk=1,16.4611796,79.8713491,Andhra Pradesh
Andhra Hospitals-Childrens OP Clinic,Hospital,"K Convention Centre, Vasantha Colony, Kanchikacherla, Andhra Pradesh 521180, India",https://www.google.co.kr/maps/place/Andhra+Hospitals-Childrens+OP+Clinic/data=!4m5!3m4!1s0x3a35958c79ca5cf9:0xc29ad5a4114b7228!8m2!3d16.6822811!4d80.3914592?authuser=0&hl=en&rclk=1,16.6822811,80.3914592,Andhra Pradesh
Swami Hospital,Hospital,"PR6R+VHM, East Gangavaram, Andhra Pradesh 523264, India",https://www.google.co.kr/maps/place/Swami+Hospital/data=!4m5!3m4!1s0x3a4ae5e885d37ee5:0xf4ec635020e9a169!8m2!3d15.7122152!4d79.841414?authuser=0&hl=en&rclk=1,15.7122152,79.841414,Andhra Pradesh
Leprosy Mission Hospital,Hospital,"NH 43, Vizianagaram, Andhra Pradesh 535005, India",https://www.google.co.kr/maps/place/Leprosy+Mission+Hospital/data=!4m5!3m4!1s0x3a3be4ef9400696d:0x6897bf52a38910e4!8m2!3d18.0644664!4d83.3912294?authuser=0&hl=en&rclk=1,18.0644664,83.3912294,Andhra Pradesh
KIMS Hospital,Hospital,"Seelam Nookaraju Complex Rd, Katari Gardens, Gandhipuram, Rajahmundry, Andhra Pradesh 533103, India",https://www.google.co.kr/maps/place/KIMS+Hospital/data=!4m5!3m4!1s0x3a37a38c3a4e475d:0x3b2245a78cd1000e!8m2!3d17.0012168!4d81.7861392?authuser=0&hl=en&rclk=1,17.0012168,81.7861392,Andhra Pradesh
Joshi Babu K (Dr),Doctor,"B-2 S-2, Brundavan Flots, Brundavan Colony, Labbipet, Labbipet, Sahajpur, Andhra Pradesh 520010, India",https://www.google.co.kr/maps/place/Joshi+Babu+K+(Dr)/data=!4m5!3m4!1s0x3a4a81829eaaaaab:0x14d070789744d0ed!8m2!3d16.2517593!4d80.0182092?authuser=0&hl=en&rclk=1,16.2517593,80.0182092,Andhra Pradesh
ESI Clinic,Hospital,"C2-38, Sriharikota Rd, Pulicat Nagar, Sullurupeta, Andhra Pradesh 524121, India",https://www.google.co.kr/maps/place/ESI+Clinic/data=!4m5!3m4!1s0x3a4d74c4f6ecde8f:0x31f350ed2511a4a7!8m2!3d13.6984276!4d80.0302579?authuser=0&hl=en&rclk=1,13.6984276,80.0302579,Andhra Pradesh
Sri Subrahmanyeswara Clinic Dr.turlapati Srinivasa rao,Hospital,"Gannavaram Rd, Martur, Andhra Pradesh 523301, India",https://www.google.co.kr/maps/place/Sri+Subrahmanyeswara+Clinic+Dr.turlapati+Srinivasa+rao/data=!4m5!3m4!1s0x3a4a61d0c2e51c9d:0xde9f012bf0cf0651!8m2!3d15.9860488!4d80.1050293?authuser=0&hl=en&rclk=1,15.9860488,80.1050293,Andhra Pradesh
SRI SRINIVASA HOSPITAL,Hospital,"3/38, Maria Puram, Nagarajupeta, Kadapa, Andhra Pradesh 516001, India",https://www.google.co.kr/maps/place/SRI+SRINIVASA+HOSPITAL/data=!4m5!3m4!1s0x3bb3736ba9c7b74f:0xe75f0b66af496c22!8m2!3d14.4726485!4d78.8230926?authuser=0&hl=en&rclk=1,14.4726485,78.8230926,Andhra Pradesh
Mallika Hospital,Hospital,"Door No:2/403, Opp:CSI Central Church, Railway Station Rd, Kadapa, Andhra Pradesh 516001, India",https://www.google.co.kr/maps/place/Mallika+Hospital/data=!4m5!3m4!1s0x3bb3721108b179c3:0xb32c1717b9b30370!8m2!3d14.469128!4d78.8237903?authuser=0&hl=en&rclk=1,14.469128,78.8237903,Andhra Pradesh
Govt Hospital Kurnool,Hospital,"WP7Q+5X5, rp Peta, Visakhapatnam, Andhra Pradesh 522660, India",https://www.google.co.kr/maps/place/Govt+Hospital+Kurnool/data=!4m5!3m4!1s0x3a4ac00000000001:0xcbe1f200a12cc00d!8m2!3d15.9128998!4d79.7399875?authuser=0&hl=en&rclk=1,15.9128998,79.7399875,Andhra Pradesh
Triveni Hospital,Hospital,"College Rd, ILTD Colony, Kothapeta, Chirala, Andhra Pradesh 523157, India",https://www.google.co.kr/maps/place/Triveni+Hospital/data=!4m5!3m4!1s0x3a4a469f392db233:0xa411d98371d845ee!8m2!3d15.8242002!4d80.370539?authuser=0&hl=en&rclk=1,15.8242002,80.370539,Andhra Pradesh
Manipal Hospitals,Private hospital,"18-1-3, KGH Down Rd, Near Jagadamba Circle, Jagadamba Junction, Visakhapatnam, Andhra Pradesh 530002, India",https://www.google.co.kr/maps/place/Manipal+Hospitals/data=!4m5!3m4!1s0x3a39431aee6f93a3:0x7c45ec8aac7e12ff!8m2!3d17.710926!4d83.302371?authuser=0&hl=en&rclk=1,17.710926,83.302371,Andhra Pradesh
Appollo Hospital,Hospital,"R2PR+CJ3, Kotha Peta, Kurnool, Andhra Pradesh 518004, India",https://www.google.co.kr/maps/place/Appollo+Hospital/data=!4m5!3m4!1s0x3bb5e75d459eaf9d:0x9457d7a575f6bf49!8m2!3d15.8360036!4d78.0415605?authuser=0&hl=en&rclk=1,15.8360036,78.0415605,Andhra Pradesh
Gowri Gopal Hospital,Private hospital,"46/87 , Woodland Complex Budhawarpet, Andhra Pradesh 518002, India",https://www.google.co.kr/maps/place/Gowri+Gopal+Hospital/data=!4m5!3m4!1s0x3bb5ddf55c8e65ed:0x31e9b91ac3d1941e!8m2!3d15.8245511!4d78.0410539?authuser=0&hl=en&rclk=1,15.8245511,78.0410539,Andhra Pradesh
NRI General Hospital,Private hospital,"NRI Hospital Road, Chinakakani, Mangalagiri, Andhra Pradesh 522503, India",https://www.google.co.kr/maps/place/NRI+General+Hospital/data=!4m5!3m4!1s0x3a35f6b2d024d983:0xfdc50de2d1934190!8m2!3d16.4149147!4d80.5575021?authuser=0&hl=en&rclk=1,16.4149147,80.5575021,Andhra Pradesh
Govt Hospital,Hospital,"J4R7+294, Naguluppalapadu, Andhra Pradesh 523183, India",https://www.google.co.kr/maps/place/Govt+Hospital/data=!4m5!3m4!1s0x3a4a55ef6094ffb5:0x3581fc74226b7b76!8m2!3d15.6400207!4d80.1134684?authuser=0&hl=en&rclk=1,15.6400207,80.1134684,Andhra Pradesh
Dr. Mohan's Diabetes Specialities Centre,Diabetes center,"No.4-5-56/1A, Ground Floor Sai Baba Road, Vidya Nagar, Koretipadu, Guntur, Andhra Pradesh 522007, India",https://www.google.co.kr/maps/place/Dr.+Mohan's+Diabetes+Specialities+Centre/data=!4m5!3m4!1s0x3a4a757de8995117:0x6dd25d9dcb55e36f!8m2!3d16.3147799!4d80.4282662?authuser=0&hl=en&rclk=1,16.3147799,80.4282662,Andhra Pradesh
Andhra Hospitals,Private hospital,"14, C.V.R. Complex 29, 61, Sheshadri Sastry St, Near delphi auto works, Governor Peta, Vijayawada, Andhra Pradesh 520002, India",https://www.google.co.kr/maps/place/Andhra+Hospitals/data=!4m5!3m4!1s0x3a35f001c98370bf:0xd9937df63d60f714!8m2!3d16.5111055!4d80.6294689?authuser=0&hl=en&rclk=1,16.5111055,80.6294689,Andhra Pradesh
KIMS ICON Hospitals,Private hospital,"Sheela Nagar, Visakhapatnam, Andhra Pradesh 530026, India",https://www.google.co.kr/maps/place/KIMS+ICON+Hospitals/data=!4m5!3m4!1s0x3a3968ed11aaded3:0x5fe95f2024c0e6fd!8m2!3d17.7144161!4d83.1957038?authuser=0&hl=en&rclk=1,17.7144161,83.1957038,Andhra Pradesh
A1 Ortho Care Hospital || A1 Amar Ortho Hospital || Best Knee joint Replacement centre || Spine centre|| NABH Certified,Orthopedic surgeon,"A1 Amar Orthopaedic Hospital, Goudiya Matam road, 1st Ln, Gunturvari Thota, Kothapeta, Guntur, Andhra Pradesh 522001, India",https://www.google.co.kr/maps/place/A1+Ortho+Care+Hospital+%7C%7C+A1+Amar+Ortho+Hospital+%7C%7C+Best+Knee+joint+Replacement+centre+%7C%7C+Spine+centre%7C%7C+NABH+Certified/data=!4m5!3m4!1s0x3a4a754a2f30df91:0x7d17d2aec735763!8m2!3d16.2978928!4d80.4520652?authuser=0&hl=en&rclk=1,16.2978928,80.4520652,Andhra Pradesh
Hope International Hospital,Hospital,"ADB Road, Near, Achampet Junction, Kakinada, Andhra Pradesh 533005, India",https://www.google.co.kr/maps/place/Hope+International+Hospital/data=!4m5!3m4!1s0x3a3829ea206e370f:0xf8ba5df62f3a943!8m2!3d17.02431!4d82.232311?authuser=0&hl=en&rclk=1,17.02431,82.232311,Andhra Pradesh
Govt Hospital,Hospital,"govt hospital road, Martur, Andhra Pradesh 523301, India",https://www.google.co.kr/maps/place/Govt+Hospital/data=!4m5!3m4!1s0x3a4a61da09c13de9:0x246ef365d11a829a!8m2!3d15.9882045!4d80.1047374?authuser=0&hl=en&rclk=1,15.9882045,80.1047374,Andhra Pradesh
Ahalya Nursing Home,Private hospital,"behind Sivalayam Street, Ganeshrao Peta, Kothapeta, Guntur, Andhra Pradesh 522001, India",https://www.google.co.kr/maps/place/Ahalya+Nursing+Home/data=!4m5!3m4!1s0x3a4a754931ccf2b9:0xcb60f8805d9e58b!8m2!3d16.30023!4d80.449249?authuser=0&hl=en&rclk=1,16.30023,80.449249,Andhra Pradesh
Dr. Mohan's Diabetes Specialities Centre,Diabetes center,"sree rama woods, No.42/347-119-1, First Floor, Simhapuri Colony Chinna Chowk Near Naturals beauty Parlor, Kadapa, Andhra Pradesh 516001, India",https://www.google.co.kr/maps/place/Dr.+Mohan's+Diabetes+Specialities+Centre/data=!4m5!3m4!1s0x3bb373610d1f9d9f:0xdc2a3dc91f5bad01!8m2!3d14.4651936!4d78.8342445?authuser=0&hl=en&rclk=1,14.4651936,78.8342445,Andhra Pradesh
Kugler Hospital,General hospital,"31, Sanakkayala Factory Rd, Kothapeta, Guntur, Andhra Pradesh 522001, India",https://www.google.co.kr/maps/place/Kugler+Hospital/data=!4m5!3m4!1s0x3a4a754c6195e7f5:0x4cf06b415c85b9c0!8m2!3d16.3018283!4d80.4519245?authuser=0&hl=en&rclk=1,16.3018283,80.4519245,Andhra Pradesh
Fathima Hospital,Hospital,"Chintalapudi To Eluru Road, Fathimapuram, Andhra Pradesh 534461, India",https://www.google.co.kr/maps/place/Fathima+Hospital/data=!4m5!3m4!1s0x3a3663364783a2c5:0xc9dac54b66b24b12!8m2!3d17.0209332!4d80.9945476?authuser=0&hl=en&rclk=1,17.0209332,80.9945476,Andhra Pradesh
Hospital,Hospital,"JJ3C+4XC, Podili, Andhra Pradesh 523240, India",https://www.google.co.kr/maps/place/Hospital/data=!4m5!3m4!1s0x3a4ad9147ef18bc1:0x5103a94d527531a4!8m2!3d15.6028175!4d79.6223771?authuser=0&hl=en&rclk=1,15.6028175,79.6223771,Andhra Pradesh
Jaya Memorial Clinic,Hospital,"CHF2+CM2, Durgi, Andhra Pradesh 522612, India",https://www.google.co.kr/maps/place/Jaya+Memorial+Clinic/data=!4m5!3m4!1s0x3a35507afe1fb719:0xf27ca1281b854f3!8m2!3d16.4235047!4d79.5516422?authuser=0&hl=en&rclk=1,16.4235047,79.5516422,Andhra Pradesh
Hospital,Government hospital,"M65G+J56, Tarlapadu, Andhra Pradesh 523332, India",https://www.google.co.kr/maps/place/Hospital/data=!4m5!3m4!1s0x3bb52fa0ffffffff:0xaebaecb0c0cbaab0!8m2!3d15.6590431!4d79.2253776?authuser=0&hl=en&rclk=1,15.6590431,79.2253776,Andhra Pradesh
Saraswathi Clinic,Hospital,"2F24+MG5, Tripuranthakam, Andhra Pradesh 523326, India",https://www.google.co.kr/maps/place/Saraswathi+Clinic/data=!4m5!3m4!1s0x3a4ab3f04cc62bdb:0x4b0d102f5c970d50!8m2!3d16.0016353!4d79.4563698?authuser=0&hl=en&rclk=1,16.0016353,79.4563698,Andhra Pradesh
Good Samaritan Cancer & General Hospital,Hospital,"Sai Nagar, Vangayagudem, Eluru, Andhra Pradesh 534001, India",https://www.google.co.kr/maps/place/Good+Samaritan+Cancer+%26+General+Hospital/data=!4m5!3m4!1s0x3a3614be282319e1:0x1cb3c6e272291c16!8m2!3d16.6965239!4d81.0942531?authuser=0&hl=en&rclk=1,16.6965239,81.0942531,Andhra Pradesh
KOUSAR CLINIC,Hospital,"Minnekallu, Dist., Andhra Pradesh 523302, India",https://www.google.co.kr/maps/place/KOUSAR+CLINIC/data=!4m5!3m4!1s0x3a4a85ef8a5cae25:0xc9e7de212b0f1ed2!8m2!3d16.1241991!4d79.997485?authuser=0&hl=en&rclk=1,16.1241991,79.997485,Andhra Pradesh
Hospital,Hospital,"Chandaluru - Ongole Rd, Pothavaram, Andhra Pradesh 523183, India",https://www.google.co.kr/maps/place/Hospital/data=!4m5!3m4!1s0x3a4a561d44e60b87:0x909f89c532235025!8m2!3d15.6637633!4d80.0989929?authuser=0&hl=en&rclk=1,15.6637633,80.0989929,Andhra Pradesh
Tirumala Hospitals,Hospital,"21/32, Railway Station Rd, Maria Puram, Kadapa, Andhra Pradesh 516001, India",https://www.google.co.kr/maps/place/Tirumala+Hospitals/data=!4m5!3m4!1s0x3bb3721bb2c28f27:0x23a902e1a7f91b53!8m2!3d14.475661!4d78.8232756?authuser=0&hl=en&rclk=1,14.475661,78.8232756,Andhra Pradesh
Balaji Hospital,Hospital,"Mar-1184-6, NH16, Martur, Andhra Pradesh 523301, India",https://www.google.co.kr/maps/place/Balaji+Hospital/data=!4m5!3m4!1s0x3a4a61d0cac9e533:0x3b826bd894322c9c!8m2!3d15.9865585!4d80.1038809?authuser=0&hl=en&rclk=1,15.9865585,80.1038809,Andhra Pradesh
Primary Health Care Center,Hospital,"RR3M+C9Q, Mundlamuru, Andhra Pradesh 523265, India",https://www.google.co.kr/maps/place/Primary+Health+Care+Center/data=!4m5!3m4!1s0x3a4aef5e501da5ff:0xcfadf559e526b03f!8m2!3d15.8035908!4d79.833471?authuser=0&hl=en&rclk=1,15.8035908,79.833471,Andhra Pradesh
Government Hospital,Hospital,"MRW8+3MQ, Seethampeta, Andhra Pradesh 532443, India",https://www.google.co.kr/maps/place/Government+Hospital/data=!4m5!3m4!1s0x3a3c6270159567e3:0xacd94eeaad512b21!8m2!3d18.6952164!4d83.816725?authuser=0&hl=en&rclk=1,18.6952164,83.816725,Andhra Pradesh
Amrutha Heart Hospital,Heart hospital,"Sixty Feet Rd, Satyanarayana Puram, Venkateswara Nagar, Ongole, Andhra Pradesh 523001, India",https://www.google.co.kr/maps/place/Amrutha+Heart+Hospital/data=!4m5!3m4!1s0x3a4b01af6aaaaaab:0x5cd1473a928453bf!8m2!3d15.5145439!4d80.0434952?authuser=0&hl=en&rclk=1,15.5145439,80.0434952,Andhra Pradesh
Hospital,Hospital,"P2J9+8FJ, Medaramatla, Andhra Pradesh 523212, India",https://www.google.co.kr/maps/place/Hospital/data=!4m5!3m4!1s0x3a4af9fac2c04359:0x9d5b8f273700a886!8m2!3d15.7308275!4d80.0186527?authuser=0&hl=en&rclk=1,15.7308275,80.0186527,Andhra Pradesh
Hope Hospital,Hospital,"#8-22-7,Effen Street, Gandhi Bomma Center, Vijayawada, Andhra Pradesh 520001, India",https://www.google.co.kr/maps/place/Hope+Hospital/data=!4m5!3m4!1s0x3a35efef6101b6d1:0x6dda64fd103a4c6!8m2!3d16.523859!4d80.617608?authuser=0&hl=en&rclk=1,16.523859,80.617608,Andhra Pradesh
Punuri William Care,Hospital,"PR7R+8WC, East Gangavaram, Andhra Pradesh 523264, India",https://www.google.co.kr/maps/place/Punuri+William+Care/data=!4m5!3m4!1s0x3a4ae5e8c0000001:0xdd9f37bdbe6f059f!8m2!3d15.7133189!4d79.8422792?authuser=0&hl=en&rclk=1,15.7133189,79.8422792,Andhra Pradesh
Nimal District Laxmanchanda,Hospital,"WP7Q+5X5, Guntur, Andhra Pradesh 522660, India",https://www.google.co.kr/maps/place/Nimal+District+Laxmanchanda/data=!4m5!3m4!1s0x3a4ac00000000001:0x76baa9fda3faf754!8m2!3d15.9128998!4d79.7399875?authuser=0&hl=en&rclk=1,15.9128998,79.7399875,Andhra Pradesh
Lifecare Physiotherapy Clinic,Hospital,"Garalapeta Road Opp..Mallikarjuna Hospital, Kanigiri, Andhra Pradesh 523230, India",https://www.google.co.kr/maps/place/Lifecare+Physiotherapy+Clinic/data=!4m5!3m4!1s0x3a4b2ee59de91b9b:0x91e83d55d2aa3cee!8m2!3d15.4075176!4d79.5053154?authuser=0&hl=en&rclk=1,15.4075176,79.5053154,Andhra Pradesh
Andhra Hospitals Eluru,Private hospital,"23A, 8-8, Bendapudi Vari St, Powerpet, Eluru, Andhra Pradesh 534002, India",https://www.google.co.kr/maps/place/Andhra+Hospitals+Eluru/data=!4m5!3m4!1s0x3a3614c910683a17:0xeb61194b7126a0cd!8m2!3d16.7123182!4d81.1009435?authuser=0&hl=en&rclk=1,16.7123182,81.1009435,Andhra Pradesh
Mothers India Hospital,Hospital,"P7WC+FM6, Jawahar Nagar Colony, Markapur, Andhra Pradesh 523316, India",https://www.google.co.kr/maps/place/Mothers+India+Hospital/data=!4m5!3m4!1s0x3bb5319e95edbcb1:0x87d02e0e923c2e56!8m2!3d15.7461726!4d79.2716461?authuser=0&hl=en&rclk=1,15.7461726,79.2716461,Andhra Pradesh
Srinivasa nursing home,Hospital,"SH 275, Vinukonda, Andhra Pradesh 522647, India",https://www.google.co.kr/maps/place/Srinivasa+nursing+home/data=!4m5!3m4!1s0x3a4a974ce42ad41b:0xad897c1fda8862e6!8m2!3d16.0491061!4d79.7442164?authuser=0&hl=en&rclk=1,16.0491061,79.7442164,Andhra Pradesh
Chandra Hospital,Hospital,"Lawers St, Kothapeta, Vinukonda, Andhra Pradesh 522647, India",https://www.google.co.kr/maps/place/Chandra+Hospital/data=!4m5!3m4!1s0x3a4a97d54bfca993:0xcfb3c0178cb4a100!8m2!3d16.0525779!4d79.7410813?authuser=0&hl=en&rclk=1,16.0525779,79.7410813,Andhra Pradesh
Kondapalli Chest Hospital,Hospital,"Paturu, Narasaraopeta, Andhra Pradesh 522601, India",https://www.google.co.kr/maps/place/Kondapalli+Chest+Hospital/data=!4m5!3m4!1s0x3a4a811b8a96b793:0xaf123c97a5e3d294!8m2!3d16.2369232!4d80.047756?authuser=0&hl=en&rclk=1,16.2369232,80.047756,Andhra Pradesh
Solomon Hospital,Hospital,"Solomon Center, Paparajuthota, Chirala, Andhra Pradesh 523155, India",https://www.google.co.kr/maps/place/Solomon+Hospital/data=!4m5!3m4!1s0x3a4a4438be702775:0x8ac1bf7bb1af78b0!8m2!3d15.8176107!4d80.3446782?authuser=0&hl=en&rclk=1,15.8176107,80.3446782,Andhra Pradesh
Govt. P.H.C.,Hospital,"Govt. Hospital, N.S.P. Colony, S.N., Santhanuthalapadu, Andhra Pradesh, India",https://www.google.co.kr/maps/place/Govt.+P.H.C./data=!4m5!3m4!1s0x3a4b029825bfa10d:0x4f248dd781fedc41!8m2!3d15.5402931!4d79.9436558?authuser=0&hl=en&rclk=1,15.5402931,79.9436558,Andhra Pradesh
Uday Hospital,Hospital,"Railway Station Rd, Maria Puram, Kadapa, Andhra Pradesh 516001, India",https://www.google.co.kr/maps/place/Uday+Hospital/data=!4m5!3m4!1s0x3bb3721089250a35:0xdd736a44a4ea4d12!8m2!3d14.471773!4d78.823793?authuser=0&hl=en&rclk=1,14.471773,78.823793,Andhra Pradesh
Medicover Hospitals Health City Visakhapatnam,Hospital,"Plot No, 5, BRTS Rd, Chinna Gadhili, Arilova, Visakhapatnam, Andhra Pradesh 530040, India",https://www.google.co.kr/maps/place/Medicover+Hospitals+Health+City+Visakhapatnam/data=!4m5!3m4!1s0x3a395d0cc379f4ad:0x44d497fa518dbc32!8m2!3d17.7635107!4d83.3119078?authuser=0&hl=en&rclk=1,17.7635107,83.3119078,Andhra Pradesh
Gov Health center,Hospital,"RFRM+778, Donakonda, Andhra Pradesh 523305, India",https://www.google.co.kr/maps/place/Gov+Health+center/data=!4m5!3m4!1s0x3a4ac96fbdcd4bc5:0x800e212a3b77b48!8m2!3d15.8406677!4d79.4832184?authuser=0&hl=en&rclk=1,15.8406677,79.4832184,Andhra Pradesh
SRI VENKATESWARA HOSPITAL,Hospital,"Nandigama Bypass, Anasagaram, Andhra Pradesh 521185, India",https://www.google.co.kr/maps/place/SRI+VENKATESWARA+HOSPITAL/data=!4m5!3m4!1s0x3a35bca5a44bc20d:0x2f8052292e9e8662!8m2!3d16.7871685!4d80.2729451?authuser=0&hl=en&rclk=1,16.7871685,80.2729451,Andhra Pradesh
Hospital,Hospital,"RG9F+6R3, Subbaraopet, Tadepalligudem, Andhra Pradesh 534101, India",https://www.google.co.kr/maps/place/Hospital/data=!4m5!3m4!1s0x3a37b5045f5a43bd:0xc562539b3f1e6c34!8m2!3d16.8180058!4d81.5245387?authuser=0&hl=en&rclk=1,16.8180058,81.5245387,Andhra Pradesh
Al Shifa Hijama Clinic For Women,Doctor,"JJ36+843, Podili, Andhra Pradesh 523240, India",https://www.google.co.kr/maps/place/Al+Shifa+Hijama+Clinic+For+Women/data=!4m5!3m4!1s0x3a4ad90b6568064d:0xad22e14fb47576fe!8m2!3d15.6032666!4d79.6103006?authuser=0&hl=en&rclk=1,15.6032666,79.6103006,Andhra Pradesh
G.S.R. Hospital,Hospital,"G26P+848, Pandaripuram, Ongole, Andhra Pradesh 523001, India",https://www.google.co.kr/maps/place/G.S.R.+Hospital/data=!4m5!3m4!1s0x3a4b01a7ac5a6fb9:0xa550be6cffa28836!8m2!3d15.5107841!4d80.0353303?authuser=0&hl=en&rclk=1,15.5107841,80.0353303,Andhra Pradesh
FATHIMA PILES CLINIC,Hospital,"Guntur Rd, Barampet, Narasaraopeta, Andhra Pradesh 522601, India",https://www.google.co.kr/maps/place/FATHIMA+PILES+CLINIC/data=!4m5!3m4!1s0x3a4a81f192a35fe1:0xc92b81df468c226f!8m2!3d16.2372936!4d80.0555978?authuser=0&hl=en&rclk=1,16.2372936,80.0555978,Andhra Pradesh
Ramesh Hospitals,Hospital,"Doctor Ramesh Hospital Road, Near ITI College Bus stop, Vijayawada, Andhra Pradesh 520008, India",https://www.google.co.kr/maps/place/Ramesh+Hospitals/data=!4m5!3m4!1s0x3a35fac93a49e0a5:0x2af79cdbd426badd!8m2!3d16.505686!4d80.6601415?authuser=0&hl=en&rclk=1,16.505686,80.6601415,Andhra Pradesh
"Rainbow Children's Hospital & BirthRight by Rainbow, Vizag",Children's hospital,"Plot No.15A, Survey No.21 & 27 Health City, Chinnagadili, Andhra Pradesh 530040, India","https://www.google.co.kr/maps/place/Rainbow+Children's+Hospital+%26+BirthRight+by+Rainbow,+Vizag/data=!4m5!3m4!1s0x3a395d3f3855c5b7:0xbedafdcebfd12d19!8m2!3d17.7635001!4d83.3111261?authuser=0&hl=en&rclk=1",17.7635001,83.3111261,Andhra Pradesh
RIMS Hospital,Government hospital,"Gopal Nagar 5th Ln, Bhagyanagar, Ongole, Andhra Pradesh 523001, India",https://www.google.co.kr/maps/place/RIMS+Hospital/data=!4m5!3m4!1s0x3a4b0118cac728e1:0xe0205941fd9ffe01!8m2!3d15.4878817!4d80.0471437?authuser=0&hl=en&rclk=1,15.4878817,80.0471437,Andhra Pradesh
Anjaneyaraju Clinic,Hospital,"5RQG+FPC, Boggaram, Andhra Pradesh 522658, India",https://www.google.co.kr/maps/place/Anjaneyaraju+Clinic/data=!4m5!3m4!1s0x3a4a99568af5ed71:0x3e4d16bbe4101678!8m2!3d16.1886759!4d79.8267685?authuser=0&hl=en&rclk=1,16.1886759,79.8267685,Andhra Pradesh
Viswayogi Hospital,Hospital,"679W+3P8, VISWAYOGI HOSPITAL, Andhra Pradesh 522019, India",https://www.google.co.kr/maps/place/Viswayogi+Hospital/data=!4m5!3m4!1s0x3a4a70b52da0a443:0x48b4aa645e0c6b71!8m2!3d16.2176518!4d80.2968299?authuser=0&hl=en&rclk=1,16.2176518,80.2968299,Andhra Pradesh
Gayatri Hospital,Hospital,"Subramanyam Peta, Babametta, Vizianagaram, Andhra Pradesh 535002, India",https://www.google.co.kr/maps/place/Gayatri+Hospital/data=!4m5!3m4!1s0x3a3be54c547e852b:0x99e01529e1a94f7a!8m2!3d18.110687!4d83.4186762?authuser=0&hl=en&rclk=1,18.110687,83.4186762,Andhra Pradesh
Suraksha Super Speciality Hospital,Hospital,"42/347-15-6, simhapuri colony, near rtc bustand, opp Spencer out gate, Kadapa, Andhra Pradesh 516001, India",https://www.google.co.kr/maps/place/Suraksha+Super+Speciality+Hospital/data=!4m5!3m4!1s0x3bb37206973c259f:0xb0038e08d438bad!8m2!3d14.4647088!4d78.8313548?authuser=0&hl=en&rclk=1,14.4647088,78.8313548,Andhra Pradesh
Ramesh Sanghamitra Hospital,Hospital,"NH 5 Near Nellore Bus Stand, Ongole, Andhra Pradesh 523001, India",https://www.google.co.kr/maps/place/Ramesh+Sanghamitra+Hospital/data=!4m5!3m4!1s0x3a4b01269e8b2717:0x52a71eccb6ef8fa8!8m2!3d15.479061!4d80.048297?authuser=0&hl=en&rclk=1,15.479061,80.048297,Andhra Pradesh
Pradhamika Arogya Kendra,Hospital,"line 2, Ramalayam St, Chintalacheruvu, Andhra Pradesh 522659, India",https://www.google.co.kr/maps/place/Pradhamika+Arogya+Kendra/data=!4m5!3m4!1s0x3a4ab9035cdd79ad:0xa228ac03609295bd!8m2!3d15.9584795!4d79.6153262?authuser=0&hl=en&rclk=1,15.9584795,79.6153262,Andhra Pradesh
Dr Siva Hospital,Hospital,"RFJP+CC7, Donakonda, Andhra Pradesh 523305, India",https://www.google.co.kr/maps/place/Dr+Siva+Hospital/data=!4m5!3m4!1s0x3a4ac9420a7b453f:0xaad3ec91c9991466!8m2!3d15.8310344!4d79.4860567?authuser=0&hl=en&rclk=1,15.8310344,79.4860567,Andhra Pradesh
Sri Sathya Sai Diabetes Care and General Hospital,Hospital,"Dr. Adireddy Complex, Guntur, SH-89, Vinukonda Macherla Road, Vinukonda, Vinukonda, Andhra Pradesh 522647, India",https://www.google.co.kr/maps/place/Sri+Sathya+Sai+Diabetes+Care+and+General+Hospital/data=!4m5!3m4!1s0x3a4a97d5548cd489:0x4680d8b3c6b78a3a!8m2!3d16.052346!4d79.740251?authuser=0&hl=en&rclk=1,16.052346,79.740251,Andhra Pradesh
Sri pooja hospital,Hospital,"Main Rd, Porumamilla, Andhra Pradesh 516193, India",https://www.google.co.kr/maps/place/Sri+pooja+hospital/data=!4m5!3m4!1s0x3bb4964e954a3227:0x9cb3868b2c1672d9!8m2!3d15.0053243!4d78.9895247?authuser=0&hl=en&rclk=1,15.0053243,78.9895247,Andhra Pradesh
Dr usha devi hosipatal,Hospital,"Nagaraju Peta, Ln 3, Kadapa, Andhra Pradesh 516001, India",https://www.google.co.kr/maps/place/Dr+usha+devi+hosipatal/data=!4m5!3m4!1s0x3bb3720e2bfcfef7:0x13d2f1a5ed152825!8m2!3d14.4722614!4d78.8230154?authuser=0&hl=en&rclk=1,14.4722614,78.8230154,Andhra Pradesh
Primary Health Centre,Hospital,"Epuru, Guntur, SH-89, Vinukonda Macherla Road, Guntur, Guntur, Andhra Pradesh 522647, India",https://www.google.co.kr/maps/place/Primary+Health+Centre/data=!4m5!3m4!1s0x3a4a981181560219:0xb0defa18667c3991!8m2!3d16.1163555!4d79.7536813?authuser=0&hl=en&rclk=1,16.1163555,79.7536813,Andhra Pradesh
DR.kotapati Hospital,Hospital,"Pamur Rd, Andhra Pradesh 523110, India",https://www.google.co.kr/maps/place/DR.kotapati+Hospital/data=!4m5!3m4!1s0x3a4b493081f05f9d:0x5d547d4f453fa95!8m2!3d15.0799865!4d79.5010024?authuser=0&hl=en&rclk=1,15.0799865,79.5010024,Andhra Pradesh
Lalitha Super Speciality Hospitals,Hospital,"Kothapet Main Rd, Kothapeta, Guntur, Andhra Pradesh 522001, India",https://www.google.co.kr/maps/place/Lalitha+Super+Speciality+Hospitals/data=!4m5!3m4!1s0x3a4a753604648f75:0xfcf9c52530630688!8m2!3d16.295595!4d80.4496025?authuser=0&hl=en&rclk=1,16.295595,80.4496025,Andhra Pradesh
Siddhu Hospital,Hospital,"CXXP+QH3, Ramamurthy Nagar, Nellore, Andhra Pradesh 524001, India",https://www.google.co.kr/maps/place/Siddhu+Hospital/data=!4m5!3m4!1s0x3a4c8cca0a14c925:0x4ee9df24c8b50402!8m2!3d14.449387!4d79.9864125?authuser=0&hl=en&rclk=1,14.449387,79.9864125,Andhra Pradesh
chittoor government hospital,Hospital,"Church St, Thotapalyam, Chittoor, Andhra Pradesh 517001, India",https://www.google.co.kr/maps/place/chittoor+government+hospital/data=!4m5!3m4!1s0x3bad5ea82775cff3:0x6cc5c79bc627caa9!8m2!3d13.2171968!4d79.0933348?authuser=0&hl=en&rclk=1,13.2171968,79.0933348,Andhra Pradesh
Sevita Nursing Home,Hospital,"Near Swathi Function Hall, Opposite Police Grounds, Kurnool Road, Ongole, Prakasam District, Ongole, Andhra Pradesh 523001, India",https://www.google.co.kr/maps/place/Sevita+Nursing+Home/data=!4m5!3m4!1s0x3a4b01a65143a505:0xfde50dc1d90f67a3!8m2!3d15.5131082!4d80.035446?authuser=0&hl=en&rclk=1,15.5131082,80.035446,Andhra Pradesh
Hospital,Hospital,"Netaji Nagar, Nellore, Andhra Pradesh 524004, India",https://www.google.co.kr/maps/place/Hospital/data=!4m5!3m4!1s0x3a4cf2ddbf27e523:0xd04ea6e1cb360ee7!8m2!3d14.4223698!4d79.9568693?authuser=0&hl=en&rclk=1,14.4223698,79.9568693,Andhra Pradesh
SevenHills Hospital,General hospital,"Door No. 11-4-4/A, Waltair Main Road Ram Nagar Rockdale Layout, Visakhapatnam, Andhra Pradesh 530002, India",https://www.google.co.kr/maps/place/SevenHills+Hospital/data=!4m5!3m4!1s0x3a394315d34e4a3d:0xa591b07d804626ac!8m2!3d17.7173026!4d83.3095681?authuser=0&hl=en&rclk=1,17.7173026,83.3095681,Andhra Pradesh
K J H Hospital,Private hospital,"Venugonda,, 4-176, 5th Ln, Pandaripuram, Venugonda, Chilakaluripet, Andhra Pradesh 522616, India",https://www.google.co.kr/maps/place/K+J+H+Hospital/data=!4m5!3m4!1s0x3a4a63150ab6cbe9:0xb3aa7197cf806ae2!8m2!3d16.0939087!4d80.1626281?authuser=0&hl=en&rclk=1,16.0939087,80.1626281,Andhra Pradesh
King George Hospital,Government hospital,"KGH Down Rd, Opp KGH OP Gate, Maharani Peta, Visakhapatnam, Andhra Pradesh 531011, India",https://www.google.co.kr/maps/place/King+George+Hospital/data=!4m5!3m4!1s0x3a39430fd9c85ff5:0x968bce337f0096bc!8m2!3d17.7087374!4d83.3060385?authuser=0&hl=en&rclk=1,17.7087374,83.3060385,Andhra Pradesh
Dr.Nageswararo,Hospital,"2J47+28C, Pathanagireddy Palli, Andhra Pradesh 522659, India",https://www.google.co.kr/maps/place/Dr.Nageswararo/data=!4m5!3m4!1s0x3a4abbd6d161ff19:0x7755f9d0e5b0bdf9!8m2!3d16.005066!4d79.6132529?authuser=0&hl=en&rclk=1,16.005066,79.6132529,Andhra Pradesh
Surya Hospital,Hospital,"FR8J+G6G, Kadapa, Andhra Pradesh 516001, India",https://www.google.co.kr/maps/place/Surya+Hospital/data=!4m5!3m4!1s0x3bb373df8915005b:0xc370e305c477b0ee!8m2!3d14.4663043!4d78.8305863?authuser=0&hl=en&rclk=1,14.4663043,78.8305863,Andhra Pradesh
Sree Mohan Hospitals,Hospital,"Tirupati Road, Near, RTC bustand, Simhapuri Colony, Kadapa, Andhra Pradesh 516001, India",https://www.google.co.kr/maps/place/Sree+Mohan+Hospitals/data=!4m5!3m4!1s0x3bb3720b8852162b:0x653f8a1c4b02f168!8m2!3d14.4654533!4d78.832804?authuser=0&hl=en&rclk=1,14.4654533,78.832804,Andhra Pradesh
Government Cattle Hospital Kondapaturu,Hospital,"29HV+Q65, Kondapaturu, Andhra Pradesh 522112, India",https://www.google.co.kr/maps/place/Government+Cattle+Hospital+Kondapaturu/data=!4m5!3m4!1s0x3a4a6b8c1af39fc1:0x644cb17439bbb382!8m2!3d16.029391!4d80.3931098?authuser=0&hl=en&rclk=1,16.029391,80.3931098,Andhra Pradesh
Andhra Hospitals,Private hospital,"ZP High School, Moulangar Masjid Rd Opp, Bhavanipuram, Gollapudi, Vijayawada, Andhra Pradesh 521225, India",https://www.google.co.kr/maps/place/Andhra+Hospitals/data=!4m5!3m4!1s0x3a35ee4a4ef7f55d:0x9f29a806f12d4795!8m2!3d16.536301!4d80.584723?authuser=0&hl=en&rclk=1,16.536301,80.584723,Andhra Pradesh
NIMS 24 Hospital,Hospital,"Kurichedu - Chintalacheruvu - Vinukonda Rd, Kothapeta, Vinukonda, Andhra Pradesh 522647, India",https://www.google.co.kr/maps/place/NIMS+24+Hospital/data=!4m5!3m4!1s0x3a4abd7ffe48e9af:0xfeaec568ae2acee3!8m2!3d16.0524375!4d79.7398125?authuser=0&hl=en&rclk=1,16.0524375,79.7398125,Andhra Pradesh
NIKHITHA HOSPITAL,Hospital,"Door No 6/119-B2, Hyder Plaza, YBN Palli Rd, Rajampet, Andhra Pradesh 516115, India",https://www.google.co.kr/maps/place/NIKHITHA+HOSPITAL/data=!4m5!3m4!1s0x3bb3251c8be3e773:0x8bc42cc73f0514cf!8m2!3d14.1930022!4d79.1590475?authuser=0&hl=en&rclk=1,14.1930022,79.1590475,Andhra Pradesh
KIMS - Saveera Hospital,General hospital,"Office, 1-1348 Near crescent function Hall Opp. to Sakshi, 80 Feet Rd, Anantapur, Andhra Pradesh 515004, India",https://www.google.co.kr/maps/place/KIMS+-+Saveera+Hospital/data=!4m5!3m4!1s0x3bb14a8c7e4c0ef7:0xc37b60fc8a82056f!8m2!3d14.6554881!4d77.584036?authuser=0&hl=en&rclk=1,14.6554881,77.584036,Andhra Pradesh
Governament Hospital,Hospital,"6W62+WV5, Andhra Pradesh 522617, India",https://www.google.co.kr/maps/place/Governament+Hospital/data=!4m5!3m4!1s0x3a4a9cbca10bd503:0x69b6ab709a97a67d!8m2!3d16.2122602!4d79.9022367?authuser=0&hl=en&rclk=1,16.2122602,79.9022367,Andhra Pradesh
Kerala Hospital,Hospital,"Tarlupadu Rd, Gandhi Bazar, Markapur, Andhra Pradesh 523316, India",https://www.google.co.kr/maps/place/Kerala+Hospital/data=!4m5!3m4!1s0x3bb531964a1214ff:0x282034c3fc2bb6b5!8m2!3d15.7361535!4d79.269125?authuser=0&hl=en&rclk=1,15.7361535,79.269125,Andhra Pradesh
RIMS General Hospital,Hospital,"CVM7+F7R, Puttampalli, Andhra Pradesh 516002, India",https://www.google.co.kr/maps/place/RIMS+General+Hospital/data=!4m5!3m4!1s0x3bb36d0c855e364b:0x1689952f45522527!8m2!3d14.4337493!4d78.8631455?authuser=0&hl=en&rclk=1,14.4337493,78.8631455,Andhra Pradesh
GBR Super Speciality Hospital,Hospital,"Guntur SH-45, Piduguralla, Narasaraopeta, Andhra Pradesh 522301, India",https://www.google.co.kr/maps/place/GBR+Super+Speciality+Hospital/data=!4m5!3m4!1s0x3a4a811bb47dc515:0x6c231b7aaf0cd99a!8m2!3d16.2371502!4d80.045286?authuser=0&hl=en&rclk=1,16.2371502,80.045286,Andhra Pradesh
Dr. Satyanarayana Hospital,Hospital,"RX4G+M62, NSP Colony, Addanki, Andhra Pradesh 523201, India",https://www.google.co.kr/maps/place/Dr.+Satyanarayana+Hospital/data=!4m5!3m4!1s0x3a4af112a19abc6f:0x7ab1ccec1b5c3a8b!8m2!3d15.8066394!4d79.9755228?authuser=0&hl=en&rclk=1,15.8066394,79.9755228,Andhra Pradesh
Apollo Speciality Hospitals,Hospital,"16/111/113, Muthukur Rd, Pinakini Avenue, Nagar, park Area, Nellore, Andhra Pradesh 524004, India",https://www.google.co.kr/maps/place/Apollo+Speciality+Hospitals/data=!4m5!3m4!1s0x3a4cf34b836caaa9:0xf78df378f8406f7b!8m2!3d14.4383479!4d79.9925387?authuser=0&hl=en&rclk=1,14.4383479,79.9925387,Andhra Pradesh
"St.Xavier's Hospital, Nirmala Nagar, Vinukonda",Hospital,"NH 544D, Brahmanapalle, Andhra Pradesh 522647, India","https://www.google.co.kr/maps/place/St.Xavier's+Hospital,+Nirmala+Nagar,+Vinukonda/data=!4m5!3m4!1s0x3a4a97cebe72dce1:0xe68acf44c397c25d!8m2!3d16.0598615!4d79.7555012?authuser=0&hl=en&rclk=1",16.0598615,79.7555012,Andhra Pradesh
Childern Hospital,Hospital,"Kambum Road, Road, Ganesh Nagar, Markapur, Andhra Pradesh 523316, India",https://www.google.co.kr/maps/place/Childern+Hospital/data=!4m5!3m4!1s0x3bb531bd6a6f45a3:0xd015b97aeccf7bb7!8m2!3d15.7376942!4d79.2664813?authuser=0&hl=en&rclk=1,15.7376942,79.2664813,Andhra Pradesh
MRUDULA HOSPITAL,Hospital,"GEORGE, Venkata Reddy Street, Yerramukkapalli, Kadapa, Andhra Pradesh 516004, India",https://www.google.co.kr/maps/place/MRUDULA+HOSPITAL/data=!4m5!3m4!1s0x3bb37212d88176d3:0x7783280b1e49528!8m2!3d14.462242!4d78.824134?authuser=0&hl=en&rclk=1,14.462242,78.824134,Andhra Pradesh
Ramu Hospital,Hospital,"Old Madras Highway, Parchoor, Andhra Pradesh 523169, India",https://www.google.co.kr/maps/place/Ramu+Hospital/data=!4m5!3m4!1s0x3a4a6724bdca402d:0x8abc8150e349ac64!8m2!3d15.9671906!4d80.2749203?authuser=0&hl=en&rclk=1,15.9671906,80.2749203,Andhra Pradesh
Kurnool Government General Hospital kurnool,General hospital,"Budhwarpet Rd, Budhawara Peta, Alluri Sitarama Raju Nagar, Kurnool, Andhra Pradesh 518002, India",https://www.google.co.kr/maps/place/Kurnool+Government+General+Hospital+kurnool/data=!4m5!3m4!1s0x3bb5dd8c334d4fed:0x6d8dab40221266e2!8m2!3d15.8188146!4d78.0397689?authuser=0&hl=en&rclk=1,15.8188146,78.0397689,Andhra Pradesh
Chigurupati hospital,Pediatrician,"main road, beside Gangamma Temple, Piduguralla, Andhra Pradesh 522413, India",https://www.google.co.kr/maps/place/Chigurupati+hospital/data=!4m5!3m4!1s0x3a356f8a1168a5fb:0x7a1ab593df140f8!8m2!3d16.4792152!4d79.8921715?authuser=0&hl=en&rclk=1,16.4792152,79.8921715,Andhra Pradesh
Basavatarakam Cancer Hospital,Hospital,"GF42+F5F, Amaravati, Andhra Pradesh 522236, India",https://www.google.co.kr/maps/place/Basavatarakam+Cancer+Hospital/data=!4m5!3m4!1s0x3a3592aa3eafdff1:0x1250d29a34b45fb4!8m2!3d16.5061887!4d80.4504268?authuser=0&hl=en&rclk=1,16.5061887,80.4504268,Andhra Pradesh
Venkateshwara Hospital,Hospital,"Gajjalakonda road, Donakonda, 523305, India",https://www.google.co.kr/maps/place/Venkateshwara+Hospital/data=!4m5!3m4!1s0x3a4ac93a4a2d8ed3:0xa290961201be80d9!8m2!3d15.8309082!4d79.4858858?authuser=0&hl=en&rclk=1,15.8309082,79.4858858,Andhra Pradesh
Bombay Hospital,Hospital,"State Highway 89, Kothapeta, Vinukonda, Andhra Pradesh 522647, India",https://www.google.co.kr/maps/place/Bombay+Hospital/data=!4m5!3m4!1s0x3a4abd7e23e21671:0x3d6ab8d34520e140!8m2!3d16.056223!4d79.739632?authuser=0&hl=en&rclk=1,16.056223,79.739632,Andhra Pradesh
Hospital,Hospital,"Arundelpet, Narasaraopeta, Andhra Pradesh 522601, India",https://www.google.co.kr/maps/place/Hospital/data=!4m5!3m4!1s0x3a4a8119771c7089:0xf722f4c66c9db049!8m2!3d16.2343419!4d80.0453417?authuser=0&hl=en&rclk=1,16.2343419,80.0453417,Andhra Pradesh
Lakshmi Kids Hospital,Children's hospital,"4,Door No. 26, 278, Subbiah Thota St, Chilakaluripet, Andhra Pradesh 522616, India",https://www.google.co.kr/maps/place/Lakshmi+Kids+Hospital/data=!4m5!3m4!1s0x3a4a6313683de951:0x76b7cd442f28a2cb!8m2!3d16.0888003!4d80.1637372?authuser=0&hl=en&rclk=1,16.0888003,80.1637372,Andhra Pradesh
Government primary hospital,Hospital,"Kamepalli - Kondapi Rd, Kamepalli, Andhra Pradesh 523271, India",https://www.google.co.kr/maps/place/Government+primary+hospital/data=!4m5!3m4!1s0x3a4b174977b404cb:0x7e2e20abf88a9f63!8m2!3d15.3405663!4d79.8232447?authuser=0&hl=en&rclk=1,15.3405663,79.8232447,Andhra Pradesh
Dr. Gajjala Brahma Reddy Hospital,Private hospital,"Palnadu Rd, Arundelpet, Narasaraopeta, Andhra Pradesh 522601, India",https://www.google.co.kr/maps/place/Dr.+Gajjala+Brahma+Reddy+Hospital/data=!4m5!3m4!1s0x3a4a811bb5e64a41:0x9c8bdbefa6078f4b!8m2!3d16.236766!4d80.045421?authuser=0&hl=en&rclk=1,16.236766,80.045421,Andhra Pradesh
dr.anjaneyulu hospital,Hospital,"3P4R+C93, Kothapeta, Vinukonda, Andhra Pradesh 522647, India",https://www.google.co.kr/maps/place/dr.anjaneyulu+hospital/data=!4m5!3m4!1s0x3a4a97d590e48095:0x9d09b327eb76f!8m2!3d16.0560158!4d79.7409183?authuser=0&hl=en&rclk=1,16.0560158,79.7409183,Andhra Pradesh
Sri Pooja Hospital,Hospital,"Oppositeside of govt junior college groud, Porumamilla, Andhra Pradesh 516193, India",https://www.google.co.kr/maps/place/Sri+Pooja+Hospital/data=!4m5!3m4!1s0x3bb4964eea16f9fd:0x6a5de8b31b823273!8m2!3d15.0050394!4d78.9895437?authuser=0&hl=en&rclk=1,15.0050394,78.9895437,Andhra Pradesh
Dr. Kasi Reddy Hospital,Hospital,"3P2Q+JXX, Kothapeta, Vinukonda, Andhra Pradesh 522647, India",https://www.google.co.kr/maps/place/Dr.+Kasi+Reddy+Hospital/data=!4m5!3m4!1s0x3a4a962aa829eb17:0x72aa14f64fc64262!8m2!3d16.0516132!4d79.7399926?authuser=0&hl=en&rclk=1,16.0516132,79.7399926,Andhra Pradesh
Railway Hospital,Hospital,"RFMM+VHR, Donakonda, Andhra Pradesh 523326, India",https://www.google.co.kr/maps/place/Railway+Hospital/data=!4m5!3m4!1s0x3a4ac968e50f8d6b:0xf05b998462e474c8!8m2!3d15.8347341!4d79.4838762?authuser=0&hl=en&rclk=1,15.8347341,79.4838762,Andhra Pradesh
"Ramadevi Hospital, Vinukonda",Hospital,"2PXR+PX3, Kothapeta, Vinukonda, Andhra Pradesh 522647, India","https://www.google.co.kr/maps/place/Ramadevi+Hospital,+Vinukonda/data=!4m5!3m4!1s0x3a4a979d02ca8567:0xee4d65ff06f9ccb9!8m2!3d16.0492518!4d79.7424254?authuser=0&hl=en&rclk=1",16.0492518,79.7424254,Andhra Pradesh
Doctors diagnostics Ongole,Hospital,"opp. kapu kalyana mandapam, MaratiPalem, Ongole, Andhra Pradesh 523001, India",https://www.google.co.kr/maps/place/Doctors+diagnostics+Ongole/data=!4m5!3m4!1s0x3a4b017a885ef10d:0x99a255ad98643a55!8m2!3d15.5057231!4d80.049922?authuser=0&hl=en&rclk=1,15.5057231,80.049922,Andhra Pradesh
Neha Children's Hospital,Hospital,"3P2Q+PXV, Kothapeta, Vinukonda, Andhra Pradesh 522647, India",https://www.google.co.kr/maps/place/Neha+Children's+Hospital/data=!4m5!3m4!1s0x3a4abd8000af75a7:0xa559fe399eef1c7!8m2!3d16.0518616!4d79.739909?authuser=0&hl=en&rclk=1,16.0518616,79.739909,Andhra Pradesh
Mallika Spine Best Spine Hospital Guntur,Hospital,"12-12-30, Old Club Rd, Kothapeta, Guntur, Andhra Pradesh 522001, India",https://www.google.co.kr/maps/place/Mallika+Spine+Best+Spine+Hospital+Guntur/data=!4m5!3m4!1s0x3a4a75d4578786f5:0xee475ab829ec838a!8m2!3d16.299121!4d80.4522364?authuser=0&hl=en&rclk=1,16.299121,80.4522364,Andhra Pradesh
Amaravathi Hospitals,Hospital,"3P3Q+GRM, Kothapeta, Vinukonda, Andhra Pradesh 522647, India",https://www.google.co.kr/maps/place/Amaravathi+Hospitals/data=!4m5!3m4!1s0x3a4abd7fdc489777:0x8332cf6556b080b8!8m2!3d16.053838!4d79.7395336?authuser=0&hl=en&rclk=1,16.053838,79.7395336,Andhra Pradesh
Madhavaram Government Hospital,Hospital,"Apparaopeta-Madhavarm Road, Madhavaram, Andhra Pradesh 534145, India",https://www.google.co.kr/maps/place/Madhavaram+Government+Hospital/data=!4m5!3m4!1s0x3a37b22feb0e248f:0x77902c57ee8a3bcf!8m2!3d16.8916831!4d81.5937826?authuser=0&hl=en&rclk=1,16.8916831,81.5937826,Andhra Pradesh
Padmaja Hospital,Hospital,"4P86+4V9, Dasullapalle, Andhra Pradesh 522657, India",https://www.google.co.kr/maps/place/Padmaja+Hospital/data=!4m5!3m4!1s0x3a4aa327a656f9fd:0x627a8eb78391cf66!8m2!3d16.1152826!4d79.7122495?authuser=0&hl=en&rclk=1,16.1152826,79.7122495,Andhra Pradesh
Satyam Hospitals,Hospital,"Kasturi bai St, Markapur, Andhra Pradesh 523316, India",https://www.google.co.kr/maps/place/Satyam+Hospitals/data=!4m5!3m4!1s0x3bb53199bc473fb5:0xf6ea71fecd1de80c!8m2!3d15.7413681!4d79.2716576?authuser=0&hl=en&rclk=1,15.7413681,79.2716576,Andhra Pradesh
Sri Charan Nursing Home,Hospital,"P2H9+237, Medaramatla, Andhra Pradesh 523212, India",https://www.google.co.kr/maps/place/Sri+Charan+Nursing+Home/data=!4m5!3m4!1s0x3a4af9f0668c6d6f:0x93d138ecd104a6d1!8m2!3d15.727528!4d80.0176603?authuser=0&hl=en&rclk=1,15.727528,80.0176603,Andhra Pradesh
Sri seeta ramasasthri hospital,Hospital,"P7RC+C8C, Markapur, Andhra Pradesh 523316, India",https://www.google.co.kr/maps/place/Sri+seeta+ramasasthri+hospital/data=!4m5!3m4!1s0x3bb53199b453dead:0xa9e580e0e4dac3e1!8m2!3d15.7410559!4d79.2707519?authuser=0&hl=en&rclk=1,15.7410559,79.2707519,Andhra Pradesh
Gajjala Hospital,Hospital,"Court Road, Sattenapalle, Andhra Pradesh 522403, India",https://www.google.co.kr/maps/place/Gajjala+Hospital/data=!4m5!3m4!1s0x3a35817d7e27ed93:0xeec071ab993dacbf!8m2!3d16.3973518!4d80.1514291?authuser=0&hl=en&rclk=1,16.3973518,80.1514291,Andhra Pradesh
Gaddam Haribabu Hospital,Hospital,"Paturu, Narasaraopeta, Andhra Pradesh 522601, India",https://www.google.co.kr/maps/place/Gaddam+Haribabu+Hospital/data=!4m5!3m4!1s0x3a4a811b8fbad137:0x5acd8e1712c9ad66!8m2!3d16.2373781!4d80.0473345?authuser=0&hl=en&rclk=1,16.2373781,80.0473345,Andhra Pradesh
OLD HOSPITAL,Hospital,"93V6+2PP, Thondapi, Andhra Pradesh 522412, India",https://www.google.co.kr/maps/place/OLD+HOSPITAL/data=!4m5!3m4!1s0x3a357f2cd62547e9:0xeb29d8cc525d32ea!8m2!3d16.3925982!4d80.0618336?authuser=0&hl=en&rclk=1,16.3925982,80.0618336,Andhra Pradesh
Keerthi Hospital,Hospital,"4W7P+9GH, Challapalle, Andhra Pradesh 521126, India",https://www.google.co.kr/maps/place/Keerthi+Hospital/data=!4m5!3m4!1s0x3a49f153c6ae7fab:0xbe8efaeaa223df78!8m2!3d16.1134434!4d80.936348?authuser=0&hl=en&rclk=1,16.1134434,80.936348,Andhra Pradesh
Manasa Children hospital,Children's hospital,"G26Q+VRJ, Brundavan Nagar, Pandaripuram, Ongole, Andhra Pradesh 523001, India",https://www.google.co.kr/maps/place/Manasa+Children+hospital/data=!4m5!3m4!1s0x3a4b01a7aa9d78cb:0x8149d1305f787f9f!8m2!3d15.5122153!4d80.0395219?authuser=0&hl=en&rclk=1,15.5122153,80.0395219,Andhra Pradesh
Thulasamma Hospital,Hospital,"4/110, Nagaraj Pet, Maria Puram, Kadapa, Andhra Pradesh 516001, India",https://www.google.co.kr/maps/place/Thulasamma+Hospital/data=!4m5!3m4!1s0x3bb37210a224b66d:0x1afd4fe1272e0e71!8m2!3d14.4722425!4d78.8228521?authuser=0&hl=en&rclk=1,14.4722425,78.8228521,Andhra Pradesh
Bhaskara Children Hospital,Children's hospital,"Gujjanagundla Cir, SVN Colony, Guntur, Andhra Pradesh 522006, India",https://www.google.co.kr/maps/place/Bhaskara+Children+Hospital/data=!4m5!3m4!1s0x3a358a810fdf9799:0x9aa888034c5fd8f4!8m2!3d16.3200417!4d80.4142554?authuser=0&hl=en&rclk=1,16.3200417,80.4142554,Andhra Pradesh
Pinnamaneni Siddhartha General Hospital,Hospital,"Chinna Avutapalli, Peda Avutapalli, Andhra Pradesh 521286, India",https://www.google.co.kr/maps/place/Pinnamaneni+Siddhartha+General+Hospital/data=!4m5!3m4!1s0x3a360838eccaba09:0x14e744ba8f482d93!8m2!3d16.5531576!4d80.8304222?authuser=0&hl=en&rclk=1,16.5531576,80.8304222,Andhra Pradesh
Shyamala Nursing Home,Hospital,"Near Mahatma Gandhi Statue, NRT Center,, Chilakaluripet, Andhra Pradesh 522616, India",https://www.google.co.kr/maps/place/Shyamala+Nursing+Home/data=!4m5!3m4!1s0x3a4a636add425577:0xabb99238817e10e2!8m2!3d16.0932674!4d80.1665259?authuser=0&hl=en&rclk=1,16.0932674,80.1665259,Andhra Pradesh
Sri Sathya Sai General Hospital,Government hospital,"Prasanthi Nilayam, Andhra Pradesh 515134, India",https://www.google.co.kr/maps/place/Sri+Sathya+Sai+General+Hospital/data=!4m5!3m4!1s0x3bb164cbae19b18d:0xf49580dc68f9dbf2!8m2!3d14.1655737!4d77.8074215?authuser=0&hl=en&rclk=1,14.1655737,77.8074215,Andhra Pradesh
RAJA RAJESWARI HOSPITAL,Hospital,"QMCJ+P36, Muslim Bazaar, Darsi, Andhra Pradesh 523247, India",https://www.google.co.kr/maps/place/RAJA+RAJESWARI+HOSPITAL/data=!4m5!3m4!1s0x3a4ac3a76ef5ce45:0xf3bcc7e8270185ab!8m2!3d15.7717904!4d79.6801371?authuser=0&hl=en&rclk=1,15.7717904,79.6801371,Andhra Pradesh
Maharaja District Hospital,Government hospital,"Cantonment, Phase 4, Vizianagaram Cantonment, Vizianagaram, Andhra Pradesh 535003, India",https://www.google.co.kr/maps/place/Maharaja+District+Hospital/data=!4m5!3m4!1s0x3a3be570f280f31b:0x9f7f197af0310d87!8m2!3d18.1107128!4d83.3866177?authuser=0&hl=en&rclk=1,18.1107128,83.3866177,Andhra Pradesh
M M Hospital,General hospital,"Urlagattu Podu, Ganagapeta, Kadapa, Andhra Pradesh 516001, India",https://www.google.co.kr/maps/place/M+M+Hospital/data=!4m5!3m4!1s0x3bb3721b147717ed:0x9f0ccc437fc988a1!8m2!3d14.4770131!4d78.8253426?authuser=0&hl=en&rclk=1,14.4770131,78.8253426,Andhra Pradesh
Dr. Sankar Reddy S- Diabetologist in Proddatur,Diabetologist,"4/622, Gandhi Rd, behind Sreeram Chits Sankar Hospital, Venkateswara Pet, Proddatur, Andhra Pradesh 516360, India",https://www.google.co.kr/maps/place/Dr.+Sankar+Reddy+S-+Diabetologist+in+Proddatur/data=!4m5!3m4!1s0x3bb47959a8966be1:0x34952684ab2ff25c!8m2!3d14.7548688!4d78.5490128?authuser=0&hl=en&rclk=1,14.7548688,78.5490128,Andhra Pradesh
Government General Hospital,Hospital,"7CXV+Q6M, Sambasiva Pet, Guntur, Andhra Pradesh 522001, India",https://www.google.co.kr/maps/place/Government+General+Hospital/data=!4m5!3m4!1s0x3a4a756505b9e5d9:0x650f322df1702be3!8m2!3d16.2994719!4d80.4430526?authuser=0&hl=en&rclk=1,16.2994719,80.4430526,Andhra Pradesh
Government Hospital,Hospital,"Unnamed Road, 534006, Islampet, Eluru, Andhra Pradesh 534006, India",https://www.google.co.kr/maps/place/Government+Hospital/data=!4m5!3m4!1s0x3a3614c9d7b20065:0xeeffa08fac4e9497!8m2!3d16.7117588!4d81.0976688?authuser=0&hl=en&rclk=1,16.7117588,81.0976688,Andhra Pradesh
Mukhyamantri Aarogya Kendram,Government hospital,"Powerpet, Eluru, Andhra Pradesh 534002, India",https://www.google.co.kr/maps/place/Mukhyamantri+Aarogya+Kendram/data=!4m5!3m4!1s0x3a3614cdc8e49c53:0x51d268aeacab0f60!8m2!3d16.7157094!4d81.1063554?authuser=0&hl=en&rclk=1,16.7157094,81.1063554,Andhra Pradesh
Yagnam Hospital,Hospital,"62PW+WP3, Paturu, Narasaraopeta, Andhra Pradesh 522601, India",https://www.google.co.kr/maps/place/Yagnam+Hospital/data=!4m5!3m4!1s0x3a4a811b96d9fc13:0x432766b3bdf674b4!8m2!3d16.2372729!4d80.0468097?authuser=0&hl=en&rclk=1,16.2372729,80.0468097,Andhra Pradesh
Government Hospital,Hospital,"RX6C+76H, Indira Nagar, Addanki, Andhra Pradesh 523201, India",https://www.google.co.kr/maps/place/Government+Hospital/data=!4m5!3m4!1s0x3a4af17382ce73d7:0xd2bc5db9c8e702a3!8m2!3d15.8106944!4d79.9706244?authuser=0&hl=en&rclk=1,15.8106944,79.9706244,Andhra Pradesh
Guntur GGH OP Block,Hospital,"Railpet, Guntur, Andhra Pradesh 522001, India",https://www.google.co.kr/maps/place/Guntur+GGH+OP+Block/data=!4m5!3m4!1s0x3a4a7548a23b661d:0x165cd96c0291ae81!8m2!3d16.2997934!4d80.4436494?authuser=0&hl=en&rclk=1,16.2997934,80.4436494,Andhra Pradesh
Government General Hospital,Government hospital,"Old Bus Stand, Road, Hanumanpet, Vijayawada, Andhra Pradesh 520002, India",https://www.google.co.kr/maps/place/Government+General+Hospital/data=!4m5!3m4!1s0x3a35efe28d658cab:0x565d78a632347d3d!8m2!3d16.5133387!4d80.6189892?authuser=0&hl=en&rclk=1,16.5133387,80.6189892,Andhra Pradesh
Sri Datta Super Speciality Hospital,Hospital,"Prakash Nagar, Narasaraopeta, Andhra Pradesh 522601, India",https://www.google.co.kr/maps/place/Sri+Datta+Super+Speciality+Hospital/data=!4m5!3m4!1s0x3a4a8118929d4d53:0xca1998053fb212f5!8m2!3d16.2307542!4d80.045811?authuser=0&hl=en&rclk=1,16.2307542,80.045811,Andhra Pradesh
PUTTUR BONE SETTING HOSPITAL,Hospital department,"P7VF+VQ5, Jawahar Nagar Colony, Markapur, Andhra Pradesh 523316, India",https://www.google.co.kr/maps/place/PUTTUR+BONE+SETTING+HOSPITAL/data=!4m5!3m4!1s0x3bb53190c574ce49:0x59960ba4b3757dcb!8m2!3d15.7446414!4d79.2744892?authuser=0&hl=en&rclk=1,15.7446414,79.2744892,Andhra Pradesh
Sri Venkateswara Diagnostics lab & Digital x- ray,Hospital,"Addanki Rd, NSP Colony, Addanki, Andhra Pradesh 523201, India",https://www.google.co.kr/maps/place/Sri+Venkateswara+Diagnostics+lab+%26+Digital+x-+ray/data=!4m5!3m4!1s0x3a4af10d5959f355:0x609ccaf2bd4ac143!8m2!3d15.8068839!4d79.9748921?authuser=0&hl=en&rclk=1,15.8068839,79.9748921,Andhra Pradesh
SHIFAA NURSING HOME,Private hospital,"RX5G+RGX, Abhyudaya Nagar, Addanki, Andhra Pradesh 523201, India",https://www.google.co.kr/maps/place/SHIFAA+NURSING+HOME/data=!4m5!3m4!1s0x3a4af16d9aaaaaab:0x141647974917fdd9!8m2!3d15.8096111!4d79.976362?authuser=0&hl=en&rclk=1,15.8096111,79.976362,Andhra Pradesh
Governent Hospital,Government hospital,"WGRX+G58, Karalapalem, Andhra Pradesh 522111, India",https://www.google.co.kr/maps/place/Governent+Hospital/data=!4m5!3m4!1s0x3a4a3dfc5fef0097:0x528ee14b1d65bd80!8m2!3d15.9412885!4d80.5479586?authuser=0&hl=en&rclk=1,15.9412885,80.5479586,Andhra Pradesh
Government Hospital,Government hospital,"MRW8+3JQ, Seethampeta, Andhra Pradesh 532443, India",https://www.google.co.kr/maps/place/Government+Hospital/data=!4m5!3m4!1s0x3a3c630f9465bcdf:0x141bc3562d21cc50!8m2!3d18.6952135!4d83.816608?authuser=0&hl=en&rclk=1,18.6952135,83.816608,Andhra Pradesh
Chebrolu New Government Hospital,Hospital,"Chebrolu, Andhra Pradesh 534411, India",https://www.google.co.kr/maps/place/Chebrolu+New+Government+Hospital/data=!4m5!3m4!1s0x3a36493340a99825:0x77e715e831cb3b7b!8m2!3d16.825184!4d81.3990569?authuser=0&hl=en&rclk=1,16.825184,81.3990569,Andhra Pradesh
Achanta Government Hospital,Hospital,"Achanta Main Road, Achanta, Andhra Pradesh 534269, India",https://www.google.co.kr/maps/place/Achanta+Government+Hospital/data=!4m5!3m4!1s0x3a37c373447b0145:0xa0c3ca659652b6!8m2!3d16.6018647!4d81.7995805?authuser=0&hl=en&rclk=1,16.6018647,81.7995805,Andhra Pradesh
Government Hospital,Hospital,"Goverment Hospital Rd, Kacheri Savidi, Poduru, Andhra Pradesh 534327, India",https://www.google.co.kr/maps/place/Government+Hospital/data=!4m5!3m4!1s0x3a37c4ebe3a285e9:0x914ca9ad7578bc72!8m2!3d16.5882694!4d81.7516091?authuser=0&hl=en&rclk=1,16.5882694,81.7516091,Andhra Pradesh
Karuna City Diagnostic Centre,Diagnostic center,"Guntur Rd, Barampet, Narasaraopeta, Andhra Pradesh 522601, India",https://www.google.co.kr/maps/place/Karuna+City+Diagnostic+Centre/data=!4m5!3m4!1s0x3a4a80e189a69607:0x71e507b98876b2fa!8m2!3d16.2370165!4d80.056101?authuser=0&hl=en&rclk=1,16.2370165,80.056101,Andhra Pradesh
Pathanjali Aarogya Kendram,Ayurvedic clinic,"Addanki - Darsi Rd, opposite Shiva Shankar Theater, Darsi, Andhra Pradesh 523247, India",https://www.google.co.kr/maps/place/Pathanjali+Aarogya+Kendram/data=!4m5!3m4!1s0x3a4ac3a7e001bfdb:0x4b54928cf4279075!8m2!3d15.7724663!4d79.6837929?authuser=0&hl=en&rclk=1,15.7724663,79.6837929,Andhra Pradesh
AMARA Hospital,Hospital,"SH 31, Karakambadi Rural, Andhra Pradesh 517520, India",https://www.google.co.kr/maps/place/AMARA+Hospital/data=!4m5!3m4!1s0x3a4d49b526af83b1:0x98efce45d62b658d!8m2!3d13.6643359!4d79.5150089?authuser=0&hl=en&rclk=1,13.6643359,79.5150089,Andhra Pradesh
Government General Hospital,Hospital,"MH7V+6MM, Sharada Nagar, Bikasipura, Bengaluru, Andhra Pradesh 515002, India",https://www.google.co.kr/maps/place/Government+General+Hospital/data=!4m5!3m4!1s0x3bb14aefcfffffff:0xdffa594195c81a85!8m2!3d14.6630954!4d77.5941783?authuser=0&hl=en&rclk=1,14.6630954,77.5941783,Andhra Pradesh
"Dr Lavanya Kiran MBBS, MS OBSTERTICS & GYNAECOLOGY, FRM",Medical clinic,"#27-1, Thirumala Plaza, Shanti Nagar, Denkanikotta Rd, Hosur, Tamil Nadu 635109, India","https://www.google.co.kr/maps/place/Dr+Lavanya+Kiran+MBBS,+MS+OBSTERTICS+%26+GYNAECOLOGY,+FRM/data=!4m5!3m4!1s0x3bae7185b5cc052f:0x47ee64e0f8f3dec!8m2!3d12.7195261!4d77.821905?authuser=0&hl=en&rclk=1",12.7195261,77.821905,Andhra Pradesh
"Dr. Rela Institute & Medical Centre - Multispeciality Hospital in Chennai, India",Hospital,"#7, CLC Works Rd, Nagappa Nagar, Chromepet, Chennai, Tamil Nadu 600044, India","https://www.google.co.kr/maps/place/Dr.+Rela+Institute+%26+Medical+Centre+-+Multispeciality+Hospital+in+Chennai,+India/data=!4m5!3m4!1s0x3a525f27fc049c1f:0xb4dcb75b95f1fe93!8m2!3d12.9549896!4d80.1385812?authuser=0&hl=en&rclk=1",12.9549896,80.1385812,Andhra Pradesh
Amara Hip Preservation Center of Excellence,Hospital department,"7-3-166, NH716 Cuddapah Road, Karakambadi Rd, Andhra Pradesh 517520, India",https://www.google.co.kr/maps/place/Amara+Hip+Preservation+Center+of+Excellence/data=!4m5!3m4!1s0x3a526316b7b14f63:0x5f91973ed75806a!8m2!3d13.6643496!4d79.515631?authuser=0&hl=en&rclk=1,13.6643496,79.515631,Andhra Pradesh
Indian Hospitals Corporation Limited,General hospital,"22, Greams Rd, Thousand Lights East, Thousand Lights, Chennai, Tamil Nadu 600006, India",https://www.google.co.kr/maps/place/Indian+Hospitals+Corporation+Limited/data=!4m5!3m4!1s0x3a5266442944ea53:0x83062871423229ed!8m2!3d13.0576824!4d80.2553425?authuser=0&hl=en&rclk=1,13.0576824,80.2553425,Andhra Pradesh
S.R. Drugs House,Medical clinic,"Lekhi Village, Naharlagun, Arunachal Pradesh 791110",https://www.google.co.kr/maps/place/S.R.+Drugs+House/data=!4m5!3m4!1s0x3743ff2ae452cf11:0xb3919f5e23617431!8m2!3d27.1249797!4d93.7252563?authuser=0&hl=en&rclk=1,27.1249797,93.7252563,Arunachal Pradesh
Niba Hospital,Hospital,"Naharlagun Pappunalla, Itanagar, Arunachal Pradesh 791110",https://www.google.co.kr/maps/place/Niba+Hospital/data=!4m5!3m4!1s0x374400c9d84a2901:0xe6c4d2fec82e72da!8m2!3d27.0974077!4d93.67714?authuser=0&hl=en&rclk=1,27.0974077,93.67714,Arunachal Pradesh
Medical Health Centre,Hospital,"MV79+Q8M, Namsai, Arunachal Pradesh 792103, India",https://www.google.co.kr/maps/place/Medical+Health+Centre/data=!4m5!3m4!1s0x373efa59c089aee7:0xbf9e6503afc4847c!8m2!3d27.6644704!4d95.8683065?authuser=0&hl=en&rclk=1,27.6644704,95.8683065,Arunachal Pradesh
Heema Hospital,Hospital,"NH415, Cona County, Itanagar, Arunachal Pradesh 791111",https://www.google.co.kr/maps/place/Heema+Hospital/data=!4m5!3m4!1s0x3744072190a3f1d9:0x17fa1315030b82ee!8m2!3d27.1008661!4d93.6281061?authuser=0&hl=en&rclk=1,27.1008661,93.6281061,Arunachal Pradesh
Primary Health Centre Kharsang,Hospital,"Miao Road, Miao, Arunachal Pradesh 792122, India",https://www.google.co.kr/maps/place/Primary+Health+Centre+Kharsang/data=!4m5!3m4!1s0x373eebb84e5007a9:0x3f1230e9c258f1f7!8m2!3d27.4219851!4d96.0218073?authuser=0&hl=en&rclk=1,27.4219851,96.0218073,Arunachal Pradesh
Manmow Sub-Centre,Hospital,"National Highway 52, 6th Mile Camp, Arunachal Pradesh 792103, India",https://www.google.co.kr/maps/place/Manmow+Sub-Centre/data=!4m5!3m4!1s0x373efa75a6747b1f:0x5b49d0b9d15df0dd!8m2!3d27.6791826!4d95.8968285?authuser=0&hl=en&rclk=1,27.6791826,95.8968285,Arunachal Pradesh
Samaritan Hormin Hospital,Hospital,"A Sector, Papum Pare, NH-52A, Itanagar Rd, Naharlagun, Arunachal Pradesh 791110",https://www.google.co.kr/maps/place/Samaritan+Hormin+Hospital/data=!4m5!3m4!1s0x3744008eb6cd3455:0x59e709aa13d1ac21!8m2!3d27.1085492!4d93.6974067?authuser=0&hl=en&rclk=1,27.1085492,93.6974067,Arunachal Pradesh
Physiotherapy & Rehabilitation Clinic,Hospital,"PWM6+V47, Lathao, Arunachal Pradesh 792103, India",https://www.google.co.kr/maps/place/Physiotherapy+%26+Rehabilitation+Clinic/data=!4m5!3m4!1s0x373ef7f914979691:0xc590ed814ed06232!8m2!3d27.7346556!4d95.9102962?authuser=0&hl=en&rclk=1,27.7346556,95.9102962,Arunachal Pradesh
"Gyati Takka General Hospital, Ziro",Government hospital,"Hospital Road, Cona County, Ziro, Arunachal Pradesh 791120","https://www.google.co.kr/maps/place/Gyati+Takka+General+Hospital,+Ziro/data=!4m5!3m4!1s0x374160d47dc4c7ff:0xf080831d047caddf!8m2!3d27.5390107!4d93.8219742?authuser=0&hl=en&rclk=1",27.5390107,93.8219742,Arunachal Pradesh
Samaritan Hormin Hospital,Hospital,"NH415, A - Sector, Naharlagun, Arunachal Pradesh 791110",https://www.google.co.kr/maps/place/Samaritan+Hormin+Hospital/data=!4m5!3m4!1s0x37440112e9f11ae1:0xa8566f270d71412b!8m2!3d27.0263692!4d93.6239946?authuser=0&hl=en&rclk=1,27.0263692,93.6239946,Arunachal Pradesh
Zonal General hospital Tezu,Hospital,"W5H5+64Q, Tezu, Arunachal Pradesh 792001, India",https://www.google.co.kr/maps/place/Zonal+General+hospital+Tezu/data=!4m5!3m4!1s0x373e65d354b9f6df:0x9073a1b5328bb947!8m2!3d27.9280885!4d96.1578466?authuser=0&hl=en&rclk=1,27.9280885,96.1578466,Arunachal Pradesh
APNC,Medical clinic,"Nursing Council, C- Sector, Naharlagun, Arunachal Pradesh 791110",https://www.google.co.kr/maps/place/APNC/data=!4m5!3m4!1s0x3744009485555555:0xa3cc2fcfbf01de45!8m2!3d27.1040339!4d93.6870462?authuser=0&hl=en&rclk=1,27.1040339,93.6870462,Arunachal Pradesh
Tomo Riba Institute Of Health And Medical Sciences,Hospital,"National Highway 52A, Old Assembly Complex, Naharlagun, Arunachal Pradesh 791110",https://www.google.co.kr/maps/place/Tomo+Riba+Institute+Of+Health+And+Medical+Sciences/data=!4m5!3m4!1s0x37440092bd9b4271:0xff711dc44d5e5ef9!8m2!3d27.1038855!4d93.6910961?authuser=0&hl=en&rclk=1,27.1038855,93.6910961,Arunachal Pradesh
Ratan Clinic,Hospital,"R6W9+9VG, Ruksin, Arunachal Pradesh 787060, India",https://www.google.co.kr/maps/place/Ratan+Clinic/data=!4m5!3m4!1s0x373f82b6eedd6419:0x2e7b0e6a951a678e!8m2!3d27.8459469!4d95.2196877?authuser=0&hl=en&rclk=1,27.8459469,95.2196877,Arunachal Pradesh
Kruna Trust,Hospital,"792001, Arunachal Pradesh, India",https://www.google.co.kr/maps/place/Kruna+Trust/data=!4m5!3m4!1s0x373e644902d44a91:0xce180aa23552c650!8m2!3d27.9185759!4d96.1772115?authuser=0&hl=en&rclk=1,27.9185759,96.1772115,Arunachal Pradesh
Pulmocare Clinic,Hospital,"E Sector, Papum Pare, NH-52A, Itanagar Road, Naharlagun, Naharlagun, Arunachal Pradesh 791110",https://www.google.co.kr/maps/place/Pulmocare+Clinic/data=!4m5!3m4!1s0x37440092e9bbd2bd:0x4bffb8cff59af2dc!8m2!3d27.103312!4d93.691059?authuser=0&hl=en&rclk=1,27.103312,93.691059,Arunachal Pradesh
Ista Pulu Health Center,Hospital,"Roing, Arunachal Pradesh 792110, India",https://www.google.co.kr/maps/place/Ista+Pulu+Health+Center/data=!4m5!3m4!1s0x373e491979f8f823:0x5b0cb74d14e21d86!8m2!3d28.1362489!4d95.8398081?authuser=0&hl=en&rclk=1,28.1362489,95.8398081,Arunachal Pradesh
Dr Lal PathLabs,Diagnostic center,"NATIONAL HIGHWAY 52 A, MAIN ROAD, opp. TOMO RIBA GENERAL HOSPITAL, Naharlagun, Arunachal Pradesh 791110",https://www.google.co.kr/maps/place/Dr+Lal+PathLabs/data=!4m5!3m4!1s0x37440092c828395d:0x92d6fdaf0ca1e624!8m2!3d27.102304!4d93.691481?authuser=0&hl=en&rclk=1,27.102304,93.691481,Arunachal Pradesh
Primary Health Center Koronu,Hospital,"3W7G+6P3, Dibang Valley, Arunachal Pradesh 792110, India",https://www.google.co.kr/maps/place/Primary+Health+Center+Koronu/data=!4m5!3m4!1s0x373e45c45b7ed2d1:0x8d4c6858b2aca0ae!8m2!3d28.0630191!4d95.9267924?authuser=0&hl=en&rclk=1,28.0630191,95.9267924,Arunachal Pradesh
NERIST Health Unit,Hospital,"Doimukh Road, Cona County, Nirjuli, Arunachal Pradesh 791109",https://www.google.co.kr/maps/place/NERIST+Health+Unit/data=!4m5!3m4!1s0x3743fffbd8230ef7:0x53314464629955a2!8m2!3d27.1300068!4d93.7365586?authuser=0&hl=en&rclk=1,27.1300068,93.7365586,Arunachal Pradesh
"Govt Civil Hospital, Chongkham",Hospital,"R25R+Q34, Arunachal Pradesh 792102, India","https://www.google.co.kr/maps/place/Govt+Civil+Hospital,+Chongkham/data=!4m5!3m4!1s0x373e5f91408cef51:0x4bafe9d2744044a8!8m2!3d27.8093839!4d96.0402037?authuser=0&hl=en&rclk=1",27.8093839,96.0402037,Arunachal Pradesh
Emmanuel BTM Hospital,Hospital,"National Highway 52A Pappu Nallah, Naharlagun, Arunachal Pradesh 791110",https://www.google.co.kr/maps/place/Emmanuel+BTM+Hospital/data=!4m5!3m4!1s0x374400c3f0230039:0xcaeee58f8ce7ca0d!8m2!3d27.0952157!4d93.6780951?authuser=0&hl=en&rclk=1,27.0952157,93.6780951,Arunachal Pradesh
Asali Sub Centre,Hospital,"Vill - Asali, Dist, Roing, Arunachal Pradesh 792110, India",https://www.google.co.kr/maps/place/Asali+Sub+Centre/data=!4m5!3m4!1s0x373e4982feb235fb:0x1ff2ec14bf12d508!8m2!3d28.131878!4d95.8224337?authuser=0&hl=en&rclk=1,28.131878,95.8224337,Arunachal Pradesh
"District Hospital, Longding",Hospital,"Khonsa - Longding Rd, Longding H.Q., Arunachal Pradesh 792131, India","https://www.google.co.kr/maps/place/District+Hospital,+Longding/data=!4m5!3m4!1s0x3738b7f486e40275:0xd2b4a369acc0c565!8m2!3d26.8886516!4d95.3754487?authuser=0&hl=en&rclk=1",26.8886516,95.3754487,Arunachal Pradesh
Mahadevpur Government Hospital,Hospital,"JRP6+X3R, Mahadevpur, Arunachal Pradesh 792105, India",https://www.google.co.kr/maps/place/Mahadevpur+Government+Hospital/data=!4m5!3m4!1s0x373efca196849349:0xdf2c6839f0bafb3d!8m2!3d27.6374849!4d95.8101348?authuser=0&hl=en&rclk=1,27.6374849,95.8101348,Arunachal Pradesh
PHC BORDURIA,Hospital,"2FGC+XJG, Borduria, Arunachal Pradesh 792130, India",https://www.google.co.kr/maps/place/PHC+BORDURIA/data=!4m5!3m4!1s0x3738cbd269bcb577:0x9c1ac3b53a10e5d!8m2!3d27.0274409!4d95.4715817?authuser=0&hl=en&rclk=1,27.0274409,95.4715817,Arunachal Pradesh
District Hospital,Hospital,"Town Rd, Changlang, Arunachal Pradesh 792120, India",https://www.google.co.kr/maps/place/District+Hospital/data=!4m5!3m4!1s0x373ed5fa1814e77f:0x41b561a74e2b12b!8m2!3d27.1392588!4d95.7387578?authuser=0&hl=en&rclk=1,27.1392588,95.7387578,Arunachal Pradesh
"District Hospital, Bomdila",Hospital,"7C8C+632, Cona, Bomdila, Arunachal Pradesh 790001","https://www.google.co.kr/maps/place/District+Hospital,+Bomdila/data=!4m5!3m4!1s0x375cac61e8b18c43:0x392c3f438f1fe201!8m2!3d27.2655236!4d92.4201492?authuser=0&hl=en&rclk=1",27.2655236,92.4201492,Arunachal Pradesh
District Hospital Yingkiong,Hospital,"J2RG+M49, Mêdog County, Yingkiong, Arunachal Pradesh 791002",https://www.google.co.kr/maps/place/District+Hospital+Yingkiong/data=!4m5!3m4!1s0x376aab0ee325b7e5:0xe67fea1f27ae04b8!8m2!3d28.6416618!4d95.0253493?authuser=0&hl=en&rclk=1,28.6416618,95.0253493,Arunachal Pradesh
DAMBUK PHC,Hospital,"7J87+VGM, Mêdog County, Dambuk, Arunachal Pradesh 792110",https://www.google.co.kr/maps/place/DAMBUK+PHC/data=!4m5!3m4!1s0x373fc92fe4384059:0x2910999660165927!8m2!3d28.2672179!4d95.6138098?authuser=0&hl=en&rclk=1,28.2672179,95.6138098,Arunachal Pradesh
Dr Lal PathLabs,Diagnostic center,"opp. BSNL Office, Bank Tiniali, Cona County, Itanagar, Arunachal Pradesh 791111",https://www.google.co.kr/maps/place/Dr+Lal+PathLabs/data=!4m5!3m4!1s0x374407b44275e53d:0x307af87d7f98ff6c!8m2!3d27.084368!4d93.605316?authuser=0&hl=en&rclk=1,27.084368,93.605316,Arunachal Pradesh
District Hospital,Hospital,"4RRR+H77, Roing, Arunachal Pradesh 792110, India",https://www.google.co.kr/maps/place/District+Hospital/data=!4m5!3m4!1s0x373e49bb5f7d95b9:0xc3f4cfb22e041454!8m2!3d28.1414026!4d95.8406634?authuser=0&hl=en&rclk=1,28.1414026,95.8406634,Arunachal Pradesh
TB Hospital,Hospital,"NH 52, Medog, Pasighat, Arunachal Pradesh 791102",https://www.google.co.kr/maps/place/TB+Hospital/data=!4m5!3m4!1s0x373f96c55f174d85:0xac7f7b04bf5aceae!8m2!3d28.0691403!4d95.3208268?authuser=0&hl=en&rclk=1,28.0691403,95.3208268,Arunachal Pradesh
sub Center Sitpani Miri,Hospital,"JQ9J+6RV, Dakhin Bishrampur, Assam 792105, India",https://www.google.co.kr/maps/place/sub+Center+Sitpani+Miri/data=!4m5!3m4!1s0x373efcd2a4c6f135:0xf063e3c1bf6f399!8m2!3d27.6181136!4d95.7820537?authuser=0&hl=en&rclk=1,27.6181136,95.7820537,Arunachal Pradesh
District TB Centre,Hospital,"District TB Centre,, Roing, Arunachal Pradesh, India",https://www.google.co.kr/maps/place/District+TB+Centre/data=!4m5!3m4!1s0x373e49bcabc066d7:0x2f3e4e41e49fc38d!8m2!3d28.1404453!4d95.8404203?authuser=0&hl=en&rclk=1,28.1404453,95.8404203,Arunachal Pradesh
District Hospital,Hospital,"Swami Camp, Dist, Anjaw, Hayuliang, Arunachal Pradesh",https://www.google.co.kr/maps/place/District+Hospital/data=!4m5!3m4!1s0x373ddd105fafe159:0x3c0675da2bf53639!8m2!3d28.082338!4d96.5085299?authuser=0&hl=en&rclk=1,28.082338,96.5085299,Arunachal Pradesh
Jonekareng Primary Health Centre,Hospital,"Q5J8+6PP, Dhemaji, Assam 787060, India",https://www.google.co.kr/maps/place/Jonekareng+Primary+Health+Centre/data=!4m5!3m4!1s0x373f791e3487413d:0x735f0513f0275ebd!8m2!3d27.7805925!4d95.1668265?authuser=0&hl=en&rclk=1,27.7805925,95.1668265,Arunachal Pradesh
"KBM Hospital, Injan",Hospital,"C2GX+PMM, Arunachal Pradesh 792122, India","https://www.google.co.kr/maps/place/KBM+Hospital,+Injan/data=!4m5!3m4!1s0x373eeaa253ad9527:0x8e9ecf0a08eade1d!8m2!3d27.426847!4d96.0491873?authuser=0&hl=en&rclk=1",27.426847,96.0491873,Arunachal Pradesh
"General Hospital, Aalo",Hospital,"5QCX+HGQ, Mêdog County, Aalo, Arunachal Pradesh 791001","https://www.google.co.kr/maps/place/General+Hospital,+Aalo/data=!4m5!3m4!1s0x37406b77a1ed98dd:0xf8d895c40de9170a!8m2!3d28.1714525!4d94.7988689?authuser=0&hl=en&rclk=1",28.1714525,94.7988689,Arunachal Pradesh
Civil Hospital,Hospital,"4RRR+J6X, Roing, Arunachal Pradesh 792110, India",https://www.google.co.kr/maps/place/Civil+Hospital/data=!4m5!3m4!1s0x373e49bc9ff5fc75:0x601715843bee35ce!8m2!3d28.1416175!4d95.8406201?authuser=0&hl=en&rclk=1,28.1416175,95.8406201,Arunachal Pradesh
District Hospital Tawang,Government hospital,"HVQ7+HXC, Cona, Tawang, Arunachal Pradesh 790104",https://www.google.co.kr/maps/place/District+Hospital+Tawang/data=!4m5!3m4!1s0x375cf5a94148124f:0x73a24884d6c28400!8m2!3d27.5889424!4d91.864897?authuser=0&hl=en&rclk=1,27.5889424,91.864897,Arunachal Pradesh
"Primary Health Center Riga, Siang District Arunachal Pradesh, India",Medical Center,"Primary Health Center, Mêdog County, Riga, Arunachal Pradesh 791102","https://www.google.co.kr/maps/place/Primary+Health+Center+Riga,+Siang+District+Arunachal+Pradesh,+India/data=!4m5!3m4!1s0x3740079a7279cdbf:0xa57c1ac281ab1e54!8m2!3d28.4116679!4d95.047276?authuser=0&hl=en&rclk=1",28.4116679,95.047276,Arunachal Pradesh
I.S Diagnostic Centre and Hospital,Hospital,"NH 52, Medog, Pasighat, Arunachal Pradesh 791102",https://www.google.co.kr/maps/place/I.S+Diagnostic+Centre+and+Hospital/data=!4m5!3m4!1s0x373f96c36ceafe3b:0xe6a9ca579c55fa43!8m2!3d28.0696353!4d95.327122?authuser=0&hl=en&rclk=1,28.0696353,95.327122,Arunachal Pradesh
PHC Kharsang,Hospital,"Miao Road, Jagun to Miao Rd, Arunachal Pradesh 792122, India",https://www.google.co.kr/maps/place/PHC+Kharsang/data=!4m5!3m4!1s0x373eea7f16f06dbf:0xd8cf1600308dc854!8m2!3d27.4217476!4d96.021806?authuser=0&hl=en&rclk=1,27.4217476,96.021806,Arunachal Pradesh
"District Hospital, Anini",Hospital,"QWW6+P5G, Zayu, Anini, Arunachal Pradesh 792101","https://www.google.co.kr/maps/place/District+Hospital,+Anini/data=!4m5!3m4!1s0x371590976d73f80d:0x3a65559f094167ff!8m2!3d28.7968086!4d95.9104519?authuser=0&hl=en&rclk=1",28.7968086,95.9104519,Arunachal Pradesh
District Hospital,Hospital,"X6J8+GXM, Cona, Daporijo, Arunachal Pradesh 791122",https://www.google.co.kr/maps/place/District+Hospital/data=!4m5!3m4!1s0x3741a594706f1a9f:0xdf51e782247c93a8!8m2!3d27.981328!4d94.2174304?authuser=0&hl=en&rclk=1,27.981328,94.2174304,Arunachal Pradesh
Government Hospital Roing,Government hospital,"4RRR+H5C, Roing, Arunachal Pradesh 792110, India",https://www.google.co.kr/maps/place/Government+Hospital+Roing/data=!4m5!3m4!1s0x373e49bca1756651:0xe8b366f6672f84ee!8m2!3d28.1414408!4d95.8404055?authuser=0&hl=en&rclk=1,28.1414408,95.8404055,Arunachal Pradesh
Bakin Pertin General Hospital,Hospital,"Mêdog County, Pasighat, Arunachal Pradesh 791102",https://www.google.co.kr/maps/place/Bakin+Pertin+General+Hospital/data=!4m5!3m4!1s0x373f96c46f084105:0xc1837b2520d011d5!8m2!3d28.0715448!4d95.3251129?authuser=0&hl=en&rclk=1,28.0715448,95.3251129,Arunachal Pradesh
Arogyaindia,Ayurvedic clinic,"C- Sector, Itanagar, Arunachal Pradesh 791111",https://www.google.co.kr/maps/place/Arogyaindia/data=!4m5!3m4!1s0x3744072f47e8511d:0x3857267a57bf05a2!8m2!3d27.1023356!4d93.6297372?authuser=0&hl=en&rclk=1,27.1023356,93.6297372,Arunachal Pradesh
District Hospital Seppa,Hospital,"923V+767, Cona County, Shannan, Arunachal Pradesh 790102",https://www.google.co.kr/maps/place/District+Hospital+Seppa/data=!4m5!3m4!1s0x3743771344ded497:0x80dfb92f9b0a65a6!8m2!3d27.3531695!4d93.0430493?authuser=0&hl=en&rclk=1,27.3531695,93.0430493,Arunachal Pradesh
St. Damiano Hospital,Hospital,"Bazaar,, Kharsang, Arunachal Pradesh, India",https://www.google.co.kr/maps/place/St.+Damiano+Hospital/data=!4m5!3m4!1s0x373eeaa25145feb7:0xbc98ddde3a38725f!8m2!3d27.4269743!4d96.0489979?authuser=0&hl=en&rclk=1,27.4269743,96.0489979,Arunachal Pradesh
"General Hospital, Kharsang",Hospital,"C2CC+RP8, Arunachal Pradesh 792122, India","https://www.google.co.kr/maps/place/General+Hospital,+Kharsang/data=!4m5!3m4!1s0x373eea7f19c37aa3:0x6af90ce40fe67dbe!8m2!3d27.4220327!4d96.0218352?authuser=0&hl=en&rclk=1",27.4220327,96.0218352,Arunachal Pradesh
NEEPCO Medical,Medical Center,"5Q43+WM7, Cona, Doimukh, Arunachal Pradesh 791112",https://www.google.co.kr/maps/place/NEEPCO+Medical/data=!4m5!3m4!1s0x3741556f8d3c0155:0xacfd5fef23e6bc3f!8m2!3d27.1572844!4d93.7541821?authuser=0&hl=en&rclk=1,27.1572844,93.7541821,Arunachal Pradesh
Pengeri MPHC,Hospital,"CQG6+G72, Digboi, Assam 786174, India",https://www.google.co.kr/maps/place/Pengeri+MPHC/data=!4m5!3m4!1s0x373edfd9e984a761:0x28d76077efc29f81!8m2!3d27.4262527!4d95.7606329?authuser=0&hl=en&rclk=1,27.4262527,95.7606329,Arunachal Pradesh
Chubam,Hospital,"W8VG+86J, Chanu, Arunachal Pradesh 792130, India",https://www.google.co.kr/maps/place/Chubam/data=!4m5!3m4!1s0x3738b6db51188d89:0x6c806553b0227b47!8m2!3d26.943338!4d95.325523?authuser=0&hl=en&rclk=1,26.943338,95.325523,Arunachal Pradesh
"Makum Tea, Hospital",Hospital,"7MG4+478, 112/109/Nla Grant.1 Makum Tea, Assam 786181, India","https://www.google.co.kr/maps/place/Makum+Tea,+Hospital/data=!4m5!3m4!1s0x373f2672726f97fd:0x6332145c3b69385f!8m2!3d27.2752774!4d95.6557032?authuser=0&hl=en&rclk=1",27.2752774,95.6557032,Arunachal Pradesh
Veternary Hospital,Veterans hospital,"7MV4+VWR, Makum Pathar No.1, Assam 786181, India",https://www.google.co.kr/maps/place/Veternary+Hospital/data=!4m5!3m4!1s0x373f26881c3b582d:0xb8c085cea38edbb4!8m2!3d27.2947395!4d95.6572542?authuser=0&hl=en&rclk=1,27.2947395,95.6572542,Arunachal Pradesh
Nigam Health Center,Hospital,"68F6+CVW, Nigam Gaon, Assam 786621, India",https://www.google.co.kr/maps/place/Nigam+Health+Center/data=!4m5!3m4!1s0x373f48d2e53217c1:0xdd5863d57392e4bb!8m2!3d27.2236074!4d95.3121934?authuser=0&hl=en&rclk=1,27.2236074,95.3121934,Arunachal Pradesh
UC Das Hospital,Private hospital,"7PM4+JWJ, Namdan Golai, Assam 786182, India",https://www.google.co.kr/maps/place/UC+Das+Hospital/data=!4m5!3m4!1s0x373f27a25bf7b563:0x68c72b87650f7fe1!8m2!3d27.2840966!4d95.7072741?authuser=0&hl=en&rclk=1,27.2840966,95.7072741,Arunachal Pradesh
Doctors Diagnostics Centre,Diagnostic center,"S. S. Mission Road (Jerang Pharmacy, Jarkong, Leprosy colony, road, Pasighat, Arunachal Pradesh 791102",https://www.google.co.kr/maps/place/Doctors+Diagnostics+Centre/data=!4m5!3m4!1s0x373f979dac15352f:0xcf477acea55d33fb!8m2!3d28.0585569!4d95.3342185?authuser=0&hl=en&rclk=1,28.0585569,95.3342185,Arunachal Pradesh
Bijoypur PHC,Hospital,"Q5G8+J29, Dhemaji, Assam 787060, India",https://www.google.co.kr/maps/place/Bijoypur+PHC/data=!4m5!3m4!1s0x373f793c8b886147:0x74c826be63d091af!8m2!3d27.7765497!4d95.1651032?authuser=0&hl=en&rclk=1,27.7765497,95.1651032,Arunachal Pradesh
Men-tsee-khang Tibetan Medical and Astro,Hospital,"TR Camp Road, Miao, Arunachal Pradesh 792122, India",https://www.google.co.kr/maps/place/Men-tsee-khang+Tibetan+Medical+and+Astro/data=!4m5!3m4!1s0x373e96ef8d262ebf:0xae3e5774272b3b7a!8m2!3d27.4727027!4d96.1840116?authuser=0&hl=en&rclk=1,27.4727027,96.1840116,Arunachal Pradesh
ASSA DIAGNOSTIC and NURSING HOME,Hospital,"TB Hospital, Pasighat",https://www.google.co.kr/maps/place/ASSA+DIAGNOSTIC+and+NURSING+HOME/data=!4m5!3m4!1s0x373f96c5350d9345:0xbebbfd743461defa!8m2!3d28.0680241!4d95.3221109?authuser=0&hl=en&rclk=1,28.0680241,95.3221109,Arunachal Pradesh
Namroop TE Hospital,Hospital,"58V8+7JF, Namrup Chah Bagicha, Assam 786623, India",https://www.google.co.kr/maps/place/Namroop+TE+Hospital/data=!4m5!3m4!1s0x373f49714f36bc73:0x207c677522966e5a!8m2!3d27.1931846!4d95.3165587?authuser=0&hl=en&rclk=1,27.1931846,95.3165587,Arunachal Pradesh
Prabin Nobin Homeo Care,Hospital,"vill-kachamari,p.o. pathslipahar,dist, Assam",https://www.google.co.kr/maps/place/Prabin+Nobin+Homeo+Care/data=!4m5!3m4!1s0x3746ac633a48cdf3:0x2312f951e28eaeda!8m2!3d27.0704418!4d93.8357601?authuser=0&hl=en&rclk=1,27.0704418,93.8357601,Arunachal Pradesh
Tara Memorial Hospital,Hospital,"NH415, 791109",https://www.google.co.kr/maps/place/Tara+Memorial+Hospital/data=!4m5!3m4!1s0x374155e23fe5c8b9:0x3feb1b6ea18e52c4!8m2!3d27.1282547!4d93.7454005?authuser=0&hl=en&rclk=1,27.1282547,93.7454005,Arunachal Pradesh
FRU Ruksin,Hospital,"R6WC+H3F, Ruksin, Arunachal Pradesh 787060, India",https://www.google.co.kr/maps/place/FRU+Ruksin/data=!4m5!3m4!1s0x373f82b68ccf0b7b:0xa47f9819592c45c2!8m2!3d27.846445!4d95.2201779?authuser=0&hl=en&rclk=1,27.846445,95.2201779,Arunachal Pradesh
Simaluguri SHC,Hospital,"XP9X+FC8, Lakhimpur, Simaluguri, Assam 784165, India",https://www.google.co.kr/maps/place/Simaluguri+SHC/data=!4m5!3m4!1s0x3746a826780bfad3:0xa87e49a3dac870cc!8m2!3d26.968651!4d93.74857?authuser=0&hl=en&rclk=1,26.968651,93.74857,Arunachal Pradesh
Nigam Village Hospital,Hospital,"P.O- NIGAM, Nigam Gaon, Namrup, Assam 786621, India",https://www.google.co.kr/maps/place/Nigam+Village+Hospital/data=!4m5!3m4!1s0x373f48d25776d57b:0x48f871fc6a9a667e!8m2!3d27.2236491!4d95.3130448?authuser=0&hl=en&rclk=1,27.2236491,95.3130448,Arunachal Pradesh
Harmoti Mini PHC,Hospital,"Harmutty, Harmuti, Assam",https://www.google.co.kr/maps/place/Harmoti+Mini+PHC/data=!4m5!3m4!1s0x3746acb6380f65b5:0x90926b326e80b707!8m2!3d27.1131112!4d93.8439275?authuser=0&hl=en&rclk=1,27.1131112,93.8439275,Arunachal Pradesh
CHC Miao,Hospital,"27°29'27.4""N 96°12'36.7""E, India",https://www.google.co.kr/maps/place/CHC+Miao/data=!4m5!3m4!1s0x373e973a31718f65:0xa35180643d9182e9!8m2!3d27.490931!4d96.210189?authuser=0&hl=en&rclk=1,27.490931,96.210189,Arunachal Pradesh
Karuna Trust Building,Doctor,"Arunachal Pradesh, near Power House, Itanagar, 791113",https://www.google.co.kr/maps/place/Karuna+Trust+Building/data=!4m5!3m4!1s0x374407caa8fd6051:0x772d50eabac804ec!8m2!3d27.081094!4d93.6013283?authuser=0&hl=en&rclk=1,27.081094,93.6013283,Arunachal Pradesh
Sapekhati Model Hospital,Hospital,"35GH+G5W, Bagh Moria Gaon, Assam 785692, India",https://www.google.co.kr/maps/place/Sapekhati+Model+Hospital/data=!4m5!3m4!1s0x3738add805f0c177:0xb60c85c0465d80a0!8m2!3d27.0763618!4d95.1779445?authuser=0&hl=en&rclk=1,27.0763618,95.1779445,Arunachal Pradesh
Jagun Mini PHC,Hospital,"NH 153, Katha Gaon, Assam 786188, India",https://www.google.co.kr/maps/place/Jagun+Mini+PHC/data=!4m5!3m4!1s0x373edd2a6614ab8b:0x7c87fb84d1611cb2!8m2!3d27.3794565!4d95.8954227?authuser=0&hl=en&rclk=1,27.3794565,95.8954227,Arunachal Pradesh
Unique Medicose And Diagnostic,Hospital,"SH 43, Bihpuria, Assam 784161, India",https://www.google.co.kr/maps/place/Unique+Medicose+And+Diagnostic/data=!4m5!3m4!1s0x3746b1e47a0aa651:0x9bef26e5e8abc511!8m2!3d27.0098547!4d93.9117584?authuser=0&hl=en&rclk=1,27.0098547,93.9117584,Arunachal Pradesh
POWAI HOSPITAL,Hospital,"9J3W+38R, Powai Forest Village, Assam 786171, India",https://www.google.co.kr/maps/place/POWAI+HOSPITAL/data=!4m5!3m4!1s0x373f2157e299f5ef:0x304036bb6cc6748!8m2!3d27.3527335!4d95.6457775?authuser=0&hl=en&rclk=1,27.3527335,95.6457775,Arunachal Pradesh
Jonai Civil Hospital,Hospital,"Assam 787060, India",https://www.google.co.kr/maps/place/Jonai+Civil+Hospital/data=!4m5!3m4!1s0x373f82a4a9213d5f:0x5cc6dffc67862bf!8m2!3d27.8376862!4d95.2113042?authuser=0&hl=en&rclk=1,27.8376862,95.2113042,Arunachal Pradesh
Vetenary Department,Veterans hospital,"C2GH+RHC, Oil India Housing Complex, Arunachal Pradesh 792122, India",https://www.google.co.kr/maps/place/Vetenary+Department/data=!4m5!3m4!1s0x373eeb589d69d459:0x17b9ec8a5c15b843!8m2!3d27.4270722!4d96.0288753?authuser=0&hl=en&rclk=1,27.4270722,96.0288753,Arunachal Pradesh
Tago Memorial Hospital,Hospital,"NH 52A, Cona, Nirjuli, 791109",https://www.google.co.kr/maps/place/Tago+Memorial+Hospital/data=!4m5!3m4!1s0x37415556a3c80a99:0xd393537a0541f50!8m2!3d27.1300625!4d93.747516?authuser=0&hl=en&rclk=1,27.1300625,93.747516,Arunachal Pradesh
Coal India Hospital,Hospital,"Makrani Line Rd, Ledo, Assam 786182, India",https://www.google.co.kr/maps/place/Coal+India+Hospital/data=!4m5!3m4!1s0x373ed976708bfa81:0x72aba74370cd5c25!8m2!3d27.2938156!4d95.7552695?authuser=0&hl=en&rclk=1,27.2938156,95.7552695,Arunachal Pradesh
JEYPORE STATE HOSPITAL,Hospital,"796W+P7C, Joypur Chariali, Assam 786614, India",https://www.google.co.kr/maps/place/JEYPORE+STATE+HOSPITAL/data=!4m5!3m4!1s0x373f3800ee85436b:0xac48040eb5d9882b!8m2!3d27.2618118!4d95.3956292?authuser=0&hl=en&rclk=1,27.2618118,95.3956292,Arunachal Pradesh
Dr Saikia’s Clinic,Hospital,"Bus Stop, Sapekhati Charialli, Dhodar Ali Rd, Bagh Moria Gaon, Assam 785692, India",https://www.google.co.kr/maps/place/Dr+Saikia%E2%80%99s+Clinic/data=!4m5!3m4!1s0x373f535d978ef937:0x2c0720bbc162beed!8m2!3d27.07939!4d95.177792?authuser=0&hl=en&rclk=1,27.07939,95.177792,Arunachal Pradesh
Bihpuria Government Hospital,Hospital,"2W49+HF5, Bihpuria, Assam 784161, India",https://www.google.co.kr/maps/place/Bihpuria+Government+Hospital/data=!4m5!3m4!1s0x3746b1e8d951e53d:0xc14b52a9fa46a13!8m2!3d27.0063816!4d93.9187255?authuser=0&hl=en&rclk=1,27.0063816,93.9187255,Arunachal Pradesh
Beibengxiang Central Hospital,Hospital,"65VG+Q24, Mêdog County, Nyingchi, Tibet, China",https://www.google.co.kr/maps/place/Beibengxiang+Central+Hospital/data=!4m5!3m4!1s0x37152923374b6ab5:0xbeb9445705375fb6!8m2!3d29.2444!4d95.175076?authuser=0&hl=en&rclk=1,29.2444,95.175076,Arunachal Pradesh
District Tuberclosis Centre,Medical Center,"X6J8+GQ9, Cona, Daporijo, Arunachal Pradesh 791122",https://www.google.co.kr/maps/place/District+Tuberclosis+Centre/data=!4m5!3m4!1s0x3741a5946601d783:0x45bbc80a2d7e0998!8m2!3d27.9812806!4d94.2169851?authuser=0&hl=en&rclk=1,27.9812806,94.2169851,Arunachal Pradesh
kalyanee Medical,Medical Center,"Bihpuria - Borbali Rd, Bahgorah Deori, Rajbari Gaon, Assam 784161, India",https://www.google.co.kr/maps/place/kalyanee+Medical/data=!4m5!3m4!1s0x3746b1f77e2c916b:0x4468c523adfe8cbf!8m2!3d27.0220254!4d93.9164817?authuser=0&hl=en&rclk=1,27.0220254,93.9164817,Arunachal Pradesh
Rakshit Homoeo Clinic,Doctor,"MG Rd, Rangapara, Assam 784505, India",https://www.google.co.kr/maps/place/Rakshit+Homoeo+Clinic/data=!4m5!3m4!1s0x3744b9261036232f:0xc887318d99996912!8m2!3d26.8238521!4d92.6874018?authuser=0&hl=en&rclk=1,26.8238521,92.6874018,Arunachal Pradesh
Jokai Central Hospital,Hospital,"Assam Trunk Rd, Panitola Town, Assam 786183, India",https://www.google.co.kr/maps/place/Jokai+Central+Hospital/data=!4m5!3m4!1s0x373f68543b462f7f:0x735d6c2baab16cd6!8m2!3d27.4933019!4d95.2639157?authuser=0&hl=en&rclk=1,27.4933019,95.2639157,Arunachal Pradesh
Environmental studies,Internist,"Cona County, Hapoli, Arunachal Pradesh 791120",https://www.google.co.kr/maps/place/Environmental+studies/data=!4m5!3m4!1s0x37416129f8faf5dd:0xc3b02b69976bcf93!8m2!3d27.5439077!4d93.8160406?authuser=0&hl=en&rclk=1,27.5439077,93.8160406,Arunachal Pradesh
C.B.Hospital,Hospital,"Subachani Rd, Tinsukia, Assam 786125, India",https://www.google.co.kr/maps/place/C.B.Hospital/data=!4m5!3m4!1s0x373f6b03ea59148f:0xbe343ff2f71bd293!8m2!3d27.4981624!4d95.3584491?authuser=0&hl=en&rclk=1,27.4981624,95.3584491,Arunachal Pradesh
LPGB Civil Hospital,Hospital,"F9X5+CHM, Sector 1, Bordoloi Nagar, Tinsukia, Assam 786125, India",https://www.google.co.kr/maps/place/LPGB+Civil+Hospital/data=!4m5!3m4!1s0x373f6b03922cba1f:0x64ed12264ad935f1!8m2!3d27.4985813!4d95.358928?authuser=0&hl=en&rclk=1,27.4985813,95.358928,Arunachal Pradesh
Hollonghabi T.E. Hospital,Hospital,"FH2V+X2R, Bogapani T.E.27 Block No.4, Assam 786171, India",https://www.google.co.kr/maps/place/Hollonghabi+T.E.+Hospital/data=!4m5!3m4!1s0x373f186f77724213:0x3143489e18612afb!8m2!3d27.4524936!4d95.5925141?authuser=0&hl=en&rclk=1,27.4524936,95.5925141,Arunachal Pradesh
Biswanath Polyclinic,Doctor,"P5V4+72J, Biswanath Charali, Assam 784176, India",https://www.google.co.kr/maps/place/Biswanath+Polyclinic/data=!4m5!3m4!1s0x37445f1fd8aa7ec7:0xf664d54283965ea5!8m2!3d26.7432184!4d93.155006?authuser=0&hl=en&rclk=1,26.7432184,93.155006,Arunachal Pradesh
Peace Clinics,Hospital,"China, Tibet, Nyingchi, Mainling, 友谊路",https://www.google.co.kr/maps/place/Peace+Clinics/data=!4m5!3m4!1s0x376a4e357326518b:0x5372f7fe417e2f2b!8m2!3d29.214813!4d94.214067?authuser=0&hl=en&rclk=1,29.214813,94.214067,Arunachal Pradesh
Oil India Hospital,Hospital,"Oil India Limited, Duliajan, Assam 786602, India",https://www.google.co.kr/maps/place/Oil+India+Hospital/data=!4m5!3m4!1s0x373f414db5966991:0x7faf133a5d1f2ffd!8m2!3d27.3591908!4d95.3236481?authuser=0&hl=en&rclk=1,27.3591908,95.3236481,Arunachal Pradesh
Motuo People's Hospital,Hospital,"88GM+CR3, Mêdog County, Nyingchi, Tibet, China",https://www.google.co.kr/maps/place/Motuo+People's+Hospital/data=!4m5!3m4!1s0x3714df68e2f26a29:0x8bbe73d933e5e323!8m2!3d29.326019!4d95.334561?authuser=0&hl=en&rclk=1,29.326019,95.334561,Arunachal Pradesh
Tibet Medog Health Service Center,Hospital,"China, Tibet, Nyingchi, Mêdog County, 墨脱公路",https://www.google.co.kr/maps/place/Tibet+Medog+Health+Service+Center/data=!4m5!3m4!1s0x3714df69201a9aa3:0x31fe47042c9fdfed!8m2!3d29.326156!4d95.335126?authuser=0&hl=en&rclk=1,29.326156,95.335126,Arunachal Pradesh
Mainling Duoka Health Center,Hospital,"306 Provincial Rd, Mainling, Nyingchi, Tibet, China",https://www.google.co.kr/maps/place/Mainling+Duoka+Health+Center/data=!4m5!3m4!1s0x376a54eeb9487a7f:0x218668410817ae4d!8m2!3d29.317498!4d94.342136?authuser=0&hl=en&rclk=1,29.317498,94.342136,Arunachal Pradesh
BSNL Sanchar Bhawan,Telecommunications service provider,"National Highway 52A, Cona County, Itanagar, Arunachal Pradesh 791111",https://www.google.co.kr/maps/place/BSNL+Sanchar+Bhawan/data=!4m5!3m4!1s0x3744070cf7010c39:0x176c6961d7f849b5!8m2!3d27.1006822!4d93.6286672?authuser=0&hl=en&rclk=1,27.1006822,93.6286672,Arunachal Pradesh
M. A. Sultan Clinic,Doctor,"Dolabari, Gutlong Gaon, Assam 784027, India",https://www.google.co.kr/maps/place/M.+A.+Sultan+Clinic/data=!4m5!3m4!1s0x3744e99bd34d8dfb:0x951b41d44f7b13da!8m2!3d26.6575765!4d92.8103375?authuser=0&hl=en&rclk=1,26.6575765,92.8103375,Arunachal Pradesh
