Company_Name,Category,Address,Url,Latitude,Longitude,State,Territory
"Primary Health Centre, Nampong, Arunachal Pradesh India",Hospital,"74R7+V4W, Nampong, Arunachal Pradesh 792123, India","https://www.google.co.kr/maps/place/Primary+Health+Centre,+Nampong,+Arunachal+Pradesh+India/data=!4m5!3m4!1s0x373eb91dd2853317:0xf907beefb3be904e!8m2!3d27.2922281!4d96.1128192?authuser=0&hl=en&rclk=1",27.2922281,96.1128192,Arunachal Pradesh,East
"Gyati Takka General Hospital, Ziro",Government hospital,"Hospital Road, Cona County, Ziro, Arunachal Pradesh 791120","https://www.google.co.kr/maps/place/Gyati+Takka+General+Hospital,+Ziro/data=!4m5!3m4!1s0x374160d47dc4c7ff:0xf080831d047caddf!8m2!3d27.5390107!4d93.8219742?authuser=0&hl=en&rclk=1",27.5390107,93.8219742,Arunachal Pradesh,East
Medical Health Centre,Hospital,"MV79+Q8M, Namsai, Arunachal Pradesh 792103, India",https://www.google.co.kr/maps/place/Medical+Health+Centre/data=!4m5!3m4!1s0x373efa59c089aee7:0xbf9e6503afc4847c!8m2!3d27.6644704!4d95.8683065?authuser=0&hl=en&rclk=1,27.6644704,95.8683065,Arunachal Pradesh,East
Manmow Sub-Centre,Hospital,"National Highway 52, 6th Mile Camp, Arunachal Pradesh 792103, India",https://www.google.co.kr/maps/place/Manmow+Sub-Centre/data=!4m5!3m4!1s0x373efa75a6747b1f:0x5b49d0b9d15df0dd!8m2!3d27.6791826!4d95.8968285?authuser=0&hl=en&rclk=1,27.6791826,95.8968285,Arunachal Pradesh,East
Tomo Riba Institute Of Health And Medical Sciences,Hospital,"National Highway 52A, Old Assembly Complex, Naharlagun, Arunachal Pradesh 791110",https://www.google.co.kr/maps/place/Tomo+Riba+Institute+Of+Health+And+Medical+Sciences/data=!4m5!3m4!1s0x37440092bd9b4271:0xff711dc44d5e5ef9!8m2!3d27.1038855!4d93.6910961?authuser=0&hl=en&rclk=1,27.1038855,93.6910961,Arunachal Pradesh,East
Asali Sub Centre,Hospital,"Vill - Asali, Dist, Roing, Arunachal Pradesh 792110, India",https://www.google.co.kr/maps/place/Asali+Sub+Centre/data=!4m5!3m4!1s0x373e4982feb235fb:0x1ff2ec14bf12d508!8m2!3d28.131878!4d95.8224337?authuser=0&hl=en&rclk=1,28.131878,95.8224337,Arunachal Pradesh,East
Hospital,Government hospital,"Jairampur, Arunachal Pradesh 792121, India",https://www.google.co.kr/maps/place/Hospital/data=!4m5!3m4!1s0x373ec1175093654b:0xdc8bb4f6626f82a1!8m2!3d27.3550706!4d96.0145557?authuser=0&hl=en&rclk=1,27.3550706,96.0145557,Arunachal Pradesh,East
Kruna Trust,Hospital,"792001, Arunachal Pradesh, India",https://www.google.co.kr/maps/place/Kruna+Trust/data=!4m5!3m4!1s0x373e644902d44a91:0xce180aa23552c650!8m2!3d27.9185759!4d96.1772115?authuser=0&hl=en&rclk=1,27.9185759,96.1772115,Arunachal Pradesh,East
Niba Hospital,Hospital,"Naharlagun Pappunalla, Itanagar, Arunachal Pradesh 791110",https://www.google.co.kr/maps/place/Niba+Hospital/data=!4m5!3m4!1s0x374400c9d84a2901:0xe6c4d2fec82e72da!8m2!3d27.0974077!4d93.67714?authuser=0&hl=en&rclk=1,27.0974077,93.67714,Arunachal Pradesh,East
Heema Hospital,Hospital,"NH415, Cona County, Itanagar, Arunachal Pradesh 791111",https://www.google.co.kr/maps/place/Heema+Hospital/data=!4m5!3m4!1s0x3744072190a3f1d9:0x17fa1315030b82ee!8m2!3d27.1008661!4d93.6281061?authuser=0&hl=en&rclk=1,27.1008661,93.6281061,Arunachal Pradesh,East
District Hospital,Hospital,"Town Rd, Changlang, Arunachal Pradesh 792120, India",https://www.google.co.kr/maps/place/District+Hospital/data=!4m5!3m4!1s0x373ed5fa1814e77f:0x41b561a74e2b12b!8m2!3d27.1392588!4d95.7387578?authuser=0&hl=en&rclk=1,27.1392588,95.7387578,Arunachal Pradesh,East
Vivekanand Hospital,Hospital,"792001, Arunachal Pradesh, India",https://www.google.co.kr/maps/place/Vivekanand+Hospital/data=!4m5!3m4!1s0x373e6449032f10c3:0x786f74a8bec08cac!8m2!3d27.9186188!4d96.1771927?authuser=0&hl=en&rclk=1,27.9186188,96.1771927,Arunachal Pradesh,East
"Govt Civil Hospital, Chongkham",Hospital,"R25R+Q34, Arunachal Pradesh 792102, India","https://www.google.co.kr/maps/place/Govt+Civil+Hospital,+Chongkham/data=!4m5!3m4!1s0x373e5f91408cef51:0x4bafe9d2744044a8!8m2!3d27.8093839!4d96.0402037?authuser=0&hl=en&rclk=1",27.8093839,96.0402037,Arunachal Pradesh,East
"District Hospital, Longding",Hospital,"Khonsa - Longding Rd, Longding H.Q., Arunachal Pradesh 792131, India","https://www.google.co.kr/maps/place/District+Hospital,+Longding/data=!4m5!3m4!1s0x3738b7f486e40275:0xd2b4a369acc0c565!8m2!3d26.8886516!4d95.3754487?authuser=0&hl=en&rclk=1",26.8886516,95.3754487,Arunachal Pradesh,East
Primary Health Centre Kharsang,Hospital,"Miao Road, Miao, Arunachal Pradesh 792122, India",https://www.google.co.kr/maps/place/Primary+Health+Centre+Kharsang/data=!4m5!3m4!1s0x373eebb84e5007a9:0x3f1230e9c258f1f7!8m2!3d27.4219851!4d96.0218073?authuser=0&hl=en&rclk=1,27.4219851,96.0218073,Arunachal Pradesh,East
Primary Health Center Koronu,Hospital,"3W7G+6P3, Dibang Valley, Arunachal Pradesh 792110, India",https://www.google.co.kr/maps/place/Primary+Health+Center+Koronu/data=!4m5!3m4!1s0x373e45c45b7ed2d1:0x8d4c6858b2aca0ae!8m2!3d28.0630191!4d95.9267924?authuser=0&hl=en&rclk=1,28.0630191,95.9267924,Arunachal Pradesh,East
Civil Hospital,Hospital,"4RRR+J6X, Roing, Arunachal Pradesh 792110, India",https://www.google.co.kr/maps/place/Civil+Hospital/data=!4m5!3m4!1s0x373e49bc9ff5fc75:0x601715843bee35ce!8m2!3d28.1416175!4d95.8406201?authuser=0&hl=en&rclk=1,28.1416175,95.8406201,Arunachal Pradesh,East
Mahadevpur Government Hospital,Hospital,"JRP6+X3R, Mahadevpur, Arunachal Pradesh 792105, India",https://www.google.co.kr/maps/place/Mahadevpur+Government+Hospital/data=!4m5!3m4!1s0x373efca196849349:0xdf2c6839f0bafb3d!8m2!3d27.6374849!4d95.8101348?authuser=0&hl=en&rclk=1,27.6374849,95.8101348,Arunachal Pradesh,East
Samaritan Hormin Hospital,Hospital,"NH415, A - Sector, Naharlagun, Arunachal Pradesh 791110",https://www.google.co.kr/maps/place/Samaritan+Hormin+Hospital/data=!4m5!3m4!1s0x37440112e9f11ae1:0xa8566f270d71412b!8m2!3d27.0263692!4d93.6239946?authuser=0&hl=en&rclk=1,27.0263692,93.6239946,Arunachal Pradesh,East
Samaritan Hormin Hospital,Hospital,"A Sector, Papum Pare, NH-52A, Itanagar Rd, Naharlagun, Arunachal Pradesh 791110",https://www.google.co.kr/maps/place/Samaritan+Hormin+Hospital/data=!4m5!3m4!1s0x3744008eb6cd3455:0x59e709aa13d1ac21!8m2!3d27.1085492!4d93.6974067?authuser=0&hl=en&rclk=1,27.1085492,93.6974067,Arunachal Pradesh,East
Government Hospital Roing,Government hospital,"4RRR+H5C, Roing, Arunachal Pradesh 792110, India",https://www.google.co.kr/maps/place/Government+Hospital+Roing/data=!4m5!3m4!1s0x373e49bca1756651:0xe8b366f6672f84ee!8m2!3d28.1414408!4d95.8404055?authuser=0&hl=en&rclk=1,28.1414408,95.8404055,Arunachal Pradesh,East
Zonal General hospital Tezu,Hospital,"W5H5+64Q, Tezu, Arunachal Pradesh 792001, India",https://www.google.co.kr/maps/place/Zonal+General+hospital+Tezu/data=!4m5!3m4!1s0x373e65d354b9f6df:0x9073a1b5328bb947!8m2!3d27.9280885!4d96.1578466?authuser=0&hl=en&rclk=1,27.9280885,96.1578466,Arunachal Pradesh,East
Government Primary Health Centre Chowkham,Hospital,"R25R+Q2P, Arunachal Pradesh 792102, India",https://www.google.co.kr/maps/place/Government+Primary+Health+Centre+Chowkham/data=!4m5!3m4!1s0x373e5f913f42480b:0xf433b40d63ceaf8d!8m2!3d27.8094672!4d96.0400702?authuser=0&hl=en&rclk=1,27.8094672,96.0400702,Arunachal Pradesh,East
Veterinary Dispensary Deomali,Hospital,"School Rd, Namsai, Arunachal Pradesh 792103, India",https://www.google.co.kr/maps/place/Veterinary+Dispensary+Deomali/data=!4m5!3m4!1s0x373efa5ead77cd87:0x2bb2a2d99f5f67ea!8m2!3d27.665273!4d95.8724805?authuser=0&hl=en&rclk=1,27.665273,95.8724805,Arunachal Pradesh,East
Ratan Clinic,Hospital,"R6W9+9VG, Ruksin, Arunachal Pradesh 787060, India",https://www.google.co.kr/maps/place/Ratan+Clinic/data=!4m5!3m4!1s0x373f82b6eedd6419:0x2e7b0e6a951a678e!8m2!3d27.8459469!4d95.2196877?authuser=0&hl=en&rclk=1,27.8459469,95.2196877,Arunachal Pradesh,East
PHC BORDURIA,Hospital,"2FGC+XJG, Borduria, Arunachal Pradesh 792130, India",https://www.google.co.kr/maps/place/PHC+BORDURIA/data=!4m5!3m4!1s0x3738cbd269bcb577:0x9c1ac3b53a10e5d!8m2!3d27.0274409!4d95.4715817?authuser=0&hl=en&rclk=1,27.0274409,95.4715817,Arunachal Pradesh,East
District TB Centre,Hospital,"District TB Centre,, Roing, Arunachal Pradesh, India",https://www.google.co.kr/maps/place/District+TB+Centre/data=!4m5!3m4!1s0x373e49bcabc066d7:0x2f3e4e41e49fc38d!8m2!3d28.1404453!4d95.8404203?authuser=0&hl=en&rclk=1,28.1404453,95.8404203,Arunachal Pradesh,East
District Hospital Tawang,Government hospital,"HVQ7+HXC, Cona, Tawang, Arunachal Pradesh 790104",https://www.google.co.kr/maps/place/District+Hospital+Tawang/data=!4m5!3m4!1s0x375cf5a94148124f:0x73a24884d6c28400!8m2!3d27.5889424!4d91.864897?authuser=0&hl=en&rclk=1,27.5889424,91.864897,Arunachal Pradesh,East
District Hospital,Hospital,"4RRR+H77, Roing, Arunachal Pradesh 792110, India",https://www.google.co.kr/maps/place/District+Hospital/data=!4m5!3m4!1s0x373e49bb5f7d95b9:0xc3f4cfb22e041454!8m2!3d28.1414026!4d95.8406634?authuser=0&hl=en&rclk=1,28.1414026,95.8406634,Arunachal Pradesh,East
DAMBUK PHC,Hospital,"7J87+VGM, Mêdog County, Dambuk, Arunachal Pradesh 792110",https://www.google.co.kr/maps/place/DAMBUK+PHC/data=!4m5!3m4!1s0x373fc92fe4384059:0x2910999660165927!8m2!3d28.2672179!4d95.6138098?authuser=0&hl=en&rclk=1,28.2672179,95.6138098,Arunachal Pradesh,East
District Hospital Seppa,Hospital,"923V+767, Cona County, Shannan, Arunachal Pradesh 790102",https://www.google.co.kr/maps/place/District+Hospital+Seppa/data=!4m5!3m4!1s0x3743771344ded497:0x80dfb92f9b0a65a6!8m2!3d27.3531695!4d93.0430493?authuser=0&hl=en&rclk=1,27.3531695,93.0430493,Arunachal Pradesh,East
"District Hospital, Bomdila",Hospital,"7C8C+632, Cona, Bomdila, Arunachal Pradesh 790001","https://www.google.co.kr/maps/place/District+Hospital,+Bomdila/data=!4m5!3m4!1s0x375cac61e8b18c43:0x392c3f438f1fe201!8m2!3d27.2655236!4d92.4201492?authuser=0&hl=en&rclk=1",27.2655236,92.4201492,Arunachal Pradesh,East
Emmanuel BTM Hospital,Hospital,"National Highway 52A Pappu Nallah, Naharlagun, Arunachal Pradesh 791110",https://www.google.co.kr/maps/place/Emmanuel+BTM+Hospital/data=!4m5!3m4!1s0x374400c3f0230039:0xcaeee58f8ce7ca0d!8m2!3d27.0952157!4d93.6780951?authuser=0&hl=en&rclk=1,27.0952157,93.6780951,Arunachal Pradesh,East
Ista Pulu Health Center,Hospital,"Roing, Arunachal Pradesh 792110, India",https://www.google.co.kr/maps/place/Ista+Pulu+Health+Center/data=!4m5!3m4!1s0x373e491979f8f823:0x5b0cb74d14e21d86!8m2!3d28.1362489!4d95.8398081?authuser=0&hl=en&rclk=1,28.1362489,95.8398081,Arunachal Pradesh,East
District Hospital,Hospital,"Swami Camp, Dist, Anjaw, Hayuliang, Arunachal Pradesh",https://www.google.co.kr/maps/place/District+Hospital/data=!4m5!3m4!1s0x373ddd105fafe159:0x3c0675da2bf53639!8m2!3d28.082338!4d96.5085299?authuser=0&hl=en&rclk=1,28.082338,96.5085299,Arunachal Pradesh,East
NERIST Health Unit,Hospital,"Doimukh Road, Cona County, Nirjuli, Arunachal Pradesh 791109",https://www.google.co.kr/maps/place/NERIST+Health+Unit/data=!4m5!3m4!1s0x3743fffbd8230ef7:0x53314464629955a2!8m2!3d27.1300068!4d93.7365586?authuser=0&hl=en&rclk=1,27.1300068,93.7365586,Arunachal Pradesh,East
District Hospital Yingkiong,Hospital,"J2RG+M49, Mêdog County, Yingkiong, Arunachal Pradesh 791002",https://www.google.co.kr/maps/place/District+Hospital+Yingkiong/data=!4m5!3m4!1s0x376aab0ee325b7e5:0xe67fea1f27ae04b8!8m2!3d28.6416618!4d95.0253493?authuser=0&hl=en&rclk=1,28.6416618,95.0253493,Arunachal Pradesh,East
"General Hospital, Aalo",Hospital,"5QCX+HGQ, Mêdog County, Aalo, Arunachal Pradesh 791001","https://www.google.co.kr/maps/place/General+Hospital,+Aalo/data=!4m5!3m4!1s0x37406b77a1ed98dd:0xf8d895c40de9170a!8m2!3d28.1714525!4d94.7988689?authuser=0&hl=en&rclk=1",28.1714525,94.7988689,Arunachal Pradesh,East
District Hospital,Hospital,"X6J8+GXM, Cona, Daporijo, Arunachal Pradesh 791122",https://www.google.co.kr/maps/place/District+Hospital/data=!4m5!3m4!1s0x3741a594706f1a9f:0xdf51e782247c93a8!8m2!3d27.981328!4d94.2174304?authuser=0&hl=en&rclk=1,27.981328,94.2174304,Arunachal Pradesh,East
"KBM Hospital, Injan",Hospital,"C2GX+PMM, Arunachal Pradesh 792122, India","https://www.google.co.kr/maps/place/KBM+Hospital,+Injan/data=!4m5!3m4!1s0x373eeaa253ad9527:0x8e9ecf0a08eade1d!8m2!3d27.426847!4d96.0491873?authuser=0&hl=en&rclk=1",27.426847,96.0491873,Arunachal Pradesh,East
"Primary Health Center Riga, Siang District Arunachal Pradesh, India",Medical Center,"Primary Health Center, Mêdog County, Riga, Arunachal Pradesh 791102","https://www.google.co.kr/maps/place/Primary+Health+Center+Riga,+Siang+District+Arunachal+Pradesh,+India/data=!4m5!3m4!1s0x3740079a7279cdbf:0xa57c1ac281ab1e54!8m2!3d28.4116679!4d95.047276?authuser=0&hl=en&rclk=1",28.4116679,95.047276,Arunachal Pradesh,East
Hospital,Hospital,"MV79+P8R, Namsai, Arunachal Pradesh 792103, India",https://www.google.co.kr/maps/place/Hospital/data=!4m5!3m4!1s0x373efa59c0c3e9ab:0x54ed13a997efcac3!8m2!3d27.664373!4d95.8682536?authuser=0&hl=en&rclk=1,27.664373,95.8682536,Arunachal Pradesh,East
"District Hospital, Anini",Hospital,"QWW6+P5G, Zayu, Anini, Arunachal Pradesh 792101","https://www.google.co.kr/maps/place/District+Hospital,+Anini/data=!4m5!3m4!1s0x371590976d73f80d:0x3a65559f094167ff!8m2!3d28.7968086!4d95.9104519?authuser=0&hl=en&rclk=1",28.7968086,95.9104519,Arunachal Pradesh,East
St. Damiano Hospital,Hospital,"Bazaar,, Kharsang, Arunachal Pradesh, India",https://www.google.co.kr/maps/place/St.+Damiano+Hospital/data=!4m5!3m4!1s0x373eeaa25145feb7:0xbc98ddde3a38725f!8m2!3d27.4269743!4d96.0489979?authuser=0&hl=en&rclk=1,27.4269743,96.0489979,Arunachal Pradesh,East
General Hospital,Hospital,"Jyotipur, Diyun, Arunachal Pradesh 792103, India",https://www.google.co.kr/maps/place/General+Hospital/data=!4m5!3m4!1s0x373e930e6512d261:0x5036908079a2efb!8m2!3d27.540007!4d96.101768?authuser=0&hl=en&rclk=1,27.540007,96.101768,Arunachal Pradesh,East
"General Hospital, Kharsang",Hospital,"C2CC+RP8, Arunachal Pradesh 792122, India","https://www.google.co.kr/maps/place/General+Hospital,+Kharsang/data=!4m5!3m4!1s0x373eea7f19c37aa3:0x6af90ce40fe67dbe!8m2!3d27.4220327!4d96.0218352?authuser=0&hl=en&rclk=1",27.4220327,96.0218352,Arunachal Pradesh,East
TB Hospital,Hospital,"NH 52, Medog, Pasighat, Arunachal Pradesh 791102",https://www.google.co.kr/maps/place/TB+Hospital/data=!4m5!3m4!1s0x373f96c55f174d85:0xac7f7b04bf5aceae!8m2!3d28.0691403!4d95.3208268?authuser=0&hl=en&rclk=1,28.0691403,95.3208268,Arunachal Pradesh,East
Bakin Pertin General Hospital,Hospital,"Mêdog County, Pasighat, Arunachal Pradesh 791102",https://www.google.co.kr/maps/place/Bakin+Pertin+General+Hospital/data=!4m5!3m4!1s0x373f96c46f084105:0xc1837b2520d011d5!8m2!3d28.0715448!4d95.3251129?authuser=0&hl=en&rclk=1,28.0715448,95.3251129,Arunachal Pradesh,East
Military Hospital,Hospital,"6G66+F5F, Cona, Shannan, Arunachal Pradesh 790116",https://www.google.co.kr/maps/place/Military+Hospital/data=!4m5!3m4!1s0x3743544548ed5ba1:0x4ee3e23c94470a9e!8m2!3d27.2111959!4d92.5104296?authuser=0&hl=en&rclk=1,27.2111959,92.5104296,Arunachal Pradesh,East
"Public Health Centre,Miao",Hospital,"Medical Rd, Miao, Arunachal Pradesh 792122, India","https://www.google.co.kr/maps/place/Public+Health+Centre,Miao/data=!4m5!3m4!1s0x373e973bca1ebcf1:0x65d5eaff7fffdc6a!8m2!3d27.4901692!4d96.2097906?authuser=0&hl=en&rclk=1",27.4901692,96.2097906,Arunachal Pradesh,East
Heema Hospital,Hospital,"4J4M+9WQ, Cona County, Itanagar, Arunachal Pradesh 791113",https://www.google.co.kr/maps/place/Heema+Hospital/data=!4m5!3m4!1s0x374407cf999fa7a3:0x2ac49bef03e2b104!8m2!3d27.1059691!4d93.6348537?authuser=0&hl=en&rclk=1,27.1059691,93.6348537,Arunachal Pradesh,East
MH,Hospital,"National Highway 229, Cona, Shannan, Arunachal Pradesh 790116",https://www.google.co.kr/maps/place/MH/data=!4m5!3m4!1s0x374354f35fc2fd9b:0xc36c055e0208f4d5!8m2!3d27.2205723!4d92.494956?authuser=0&hl=en&rclk=1,27.2205723,92.494956,Arunachal Pradesh,East
Polo Hospital,Hospital,"3JM4+P4W, Cona, Itanagar, 791113",https://www.google.co.kr/maps/place/Polo+Hospital/data=!4m5!3m4!1s0x374407b44275fab5:0x2af62597b42fd8a5!8m2!3d27.0843682!4d93.6053163?authuser=0&hl=en&rclk=1,27.0843682,93.6053163,Arunachal Pradesh,East
I.S Diagnostic Centre and Hospital,Hospital,"NH 52, Medog, Pasighat, Arunachal Pradesh 791102",https://www.google.co.kr/maps/place/I.S+Diagnostic+Centre+and+Hospital/data=!4m5!3m4!1s0x373f96c36ceafe3b:0xe6a9ca579c55fa43!8m2!3d28.0696353!4d95.327122?authuser=0&hl=en&rclk=1,28.0696353,95.327122,Arunachal Pradesh,East
Chubam,Hospital,"W8VG+86J, Chanu, Arunachal Pradesh 792130, India",https://www.google.co.kr/maps/place/Chubam/data=!4m5!3m4!1s0x3738b6db51188d89:0x6c806553b0227b47!8m2!3d26.943338!4d95.325523?authuser=0&hl=en&rclk=1,26.943338,95.325523,Arunachal Pradesh,East
Veterinary Dispensary Changlang,Hospital,"4PQJ+82G, Changlang, Arunachal Pradesh 792120, India",https://www.google.co.kr/maps/place/Veterinary+Dispensary+Changlang/data=!4m5!3m4!1s0x373ed5f7e2edbc63:0x6b13e4961932b586!8m2!3d27.1383151!4d95.7300779?authuser=0&hl=en&rclk=1,27.1383151,95.7300779,Arunachal Pradesh,East
PHC Kharsang,Hospital,"Miao Road, Jagun to Miao Rd, Arunachal Pradesh 792122, India",https://www.google.co.kr/maps/place/PHC+Kharsang/data=!4m5!3m4!1s0x373eea7f16f06dbf:0xd8cf1600308dc854!8m2!3d27.4217476!4d96.021806?authuser=0&hl=en&rclk=1,27.4217476,96.021806,Arunachal Pradesh,East
Hormin Hospital(NEW),Hospital,"JULLY ROAD,PAPU NALLAH, Naharlagun, Arunachal Pradesh 791110",https://www.google.co.kr/maps/place/Hormin+Hospital(NEW)/data=!4m5!3m4!1s0x3744016fa96c32d7:0xe799f04e603ad7f7!8m2!3d27.0969789!4d93.6679745?authuser=0&hl=en&rclk=1,27.0969789,93.6679745,Arunachal Pradesh,East
Namroop TE Hospital,Hospital,"58V8+7JF, Namrup Chah Bagicha, Assam 786623, India",https://www.google.co.kr/maps/place/Namroop+TE+Hospital/data=!4m5!3m4!1s0x373f49714f36bc73:0x207c677522966e5a!8m2!3d27.1931846!4d95.3165587?authuser=0&hl=en&rclk=1,27.1931846,95.3165587,Arunachal Pradesh,East
District Hospital,Hospital,"8XP6+9M7, Mêdog County, Boleng, Arunachal Pradesh 791102",https://www.google.co.kr/maps/place/District+Hospital/data=!4m5!3m4!1s0x37400ec49aa482c7:0x9e5812faa73e62e7!8m2!3d28.3359145!4d94.9616816?authuser=0&hl=en&rclk=1,28.3359145,94.9616816,Arunachal Pradesh,East
sub Center Sitpani Miri,Hospital,"JQ9J+6RV, Dakhin Bishrampur, Assam 792105, India",https://www.google.co.kr/maps/place/sub+Center+Sitpani+Miri/data=!4m5!3m4!1s0x373efcd2a4c6f135:0xf063e3c1bf6f399!8m2!3d27.6181136!4d95.7820537?authuser=0&hl=en&rclk=1,27.6181136,95.7820537,Arunachal Pradesh,East
Men-tsee-khang Tibetan Medical and Astro,Hospital,"TR Camp Road, Miao, Arunachal Pradesh 792122, India",https://www.google.co.kr/maps/place/Men-tsee-khang+Tibetan+Medical+and+Astro/data=!4m5!3m4!1s0x373e96ef8d262ebf:0xae3e5774272b3b7a!8m2!3d27.4727027!4d96.1840116?authuser=0&hl=en&rclk=1,27.4727027,96.1840116,Arunachal Pradesh,East
"Makum Tea, Hospital",Hospital,"7MG4+478, 112/109/Nla Grant.1 Makum Tea, Assam 786181, India","https://www.google.co.kr/maps/place/Makum+Tea,+Hospital/data=!4m5!3m4!1s0x373f2672726f97fd:0x6332145c3b69385f!8m2!3d27.2752774!4d95.6557032?authuser=0&hl=en&rclk=1",27.2752774,95.6557032,Arunachal Pradesh,East
Nigam Health Center,Hospital,"68F6+CVW, Nigam Gaon, Assam 786621, India",https://www.google.co.kr/maps/place/Nigam+Health+Center/data=!4m5!3m4!1s0x373f48d2e53217c1:0xdd5863d57392e4bb!8m2!3d27.2236074!4d95.3121934?authuser=0&hl=en&rclk=1,27.2236074,95.3121934,Arunachal Pradesh,East
FRU Ruksin,Hospital,"R6WC+H3F, Ruksin, Arunachal Pradesh 787060, India",https://www.google.co.kr/maps/place/FRU+Ruksin/data=!4m5!3m4!1s0x373f82b68ccf0b7b:0xa47f9819592c45c2!8m2!3d27.846445!4d95.2201779?authuser=0&hl=en&rclk=1,27.846445,95.2201779,Arunachal Pradesh,East
Pengeri MPHC,Hospital,"CQG6+G72, Digboi, Assam 786174, India",https://www.google.co.kr/maps/place/Pengeri+MPHC/data=!4m5!3m4!1s0x373edfd9e984a761:0x28d76077efc29f81!8m2!3d27.4262527!4d95.7606329?authuser=0&hl=en&rclk=1,27.4262527,95.7606329,Arunachal Pradesh,East
Mukuthung,Hospital,Shannan 790002,https://www.google.co.kr/maps/place/Mukuthung/data=!4m5!3m4!1s0x375ca63320895f8f:0x5d964f80952704b3!8m2!3d27.2032285!4d92.2900701?authuser=0&hl=en&rclk=1,27.2032285,92.2900701,Arunachal Pradesh,East
Borhat public health centre.,Hospital,"576G+M48, Borhat Habi Gaon, Assam 785693, India",https://www.google.co.kr/maps/place/Borhat+public+health+centre./data=!4m5!3m4!1s0x373f4c2ec3e6b291:0x8063930de431f9a1!8m2!3d27.1616591!4d95.2753214?authuser=0&hl=en&rclk=1,27.1616591,95.2753214,Arunachal Pradesh,East
Sapekhati Model Hospital,Hospital,"35GH+G5W, Bagh Moria Gaon, Assam 785692, India",https://www.google.co.kr/maps/place/Sapekhati+Model+Hospital/data=!4m5!3m4!1s0x3738add805f0c177:0xb60c85c0465d80a0!8m2!3d27.0763618!4d95.1779445?authuser=0&hl=en&rclk=1,27.0763618,95.1779445,Arunachal Pradesh,East
Veternary Hospital,Veterans hospital,"7MV4+VWR, Makum Pathar No.1, Assam 786181, India",https://www.google.co.kr/maps/place/Veternary+Hospital/data=!4m5!3m4!1s0x373f26881c3b582d:0xb8c085cea38edbb4!8m2!3d27.2947395!4d95.6572542?authuser=0&hl=en&rclk=1,27.2947395,95.6572542,Arunachal Pradesh,East
UC Das Hospital,Private hospital,"7PM4+JWJ, Namdan Golai, Assam 786182, India",https://www.google.co.kr/maps/place/UC+Das+Hospital/data=!4m5!3m4!1s0x373f27a25bf7b563:0x68c72b87650f7fe1!8m2!3d27.2840966!4d95.7072741?authuser=0&hl=en&rclk=1,27.2840966,95.7072741,Arunachal Pradesh,East
Kalikho Pul District Hospital,Hospital,"District Anjaw Anjaw, Arunachal Pradesh",https://www.google.co.kr/maps/place/Kalikho+Pul+District+Hospital/data=!4m5!3m4!1s0x37406aaaaaaaaaab:0x28c93d03a0338db1!8m2!3d28.2179994!4d94.7277528?authuser=0&hl=en&rclk=1,28.2179994,94.7277528,Arunachal Pradesh,East
NEEPCO Medical,Medical Center,"5Q43+WM7, Cona, Doimukh, Arunachal Pradesh 791112",https://www.google.co.kr/maps/place/NEEPCO+Medical/data=!4m5!3m4!1s0x3741556f8d3c0155:0xacfd5fef23e6bc3f!8m2!3d27.1572844!4d93.7541821?authuser=0&hl=en&rclk=1,27.1572844,93.7541821,Arunachal Pradesh,East
Tago Memorial Hospital,Hospital,"NH 52A, Cona, Nirjuli, 791109",https://www.google.co.kr/maps/place/Tago+Memorial+Hospital/data=!4m5!3m4!1s0x37415556a3c80a99:0xd393537a0541f50!8m2!3d27.1300625!4d93.747516?authuser=0&hl=en&rclk=1,27.1300625,93.747516,Arunachal Pradesh,East
Primary Health Centre.,Hospital,"Primary Health Centre, govt of, Arunachal Pradesh 791119",https://www.google.co.kr/maps/place/Primary+Health+Centre./data=!4m5!3m4!1s0x374165b91c615867:0x1e007e7701b570b3!8m2!3d27.5941231!4d93.8264709?authuser=0&hl=en&rclk=1,27.5941231,93.8264709,Arunachal Pradesh,East
T-ASSAM OPTICAL,Hospital,"7MR9+CQG, Margherita, Assam 786181, India",https://www.google.co.kr/maps/place/T-ASSAM+OPTICAL/data=!4m5!3m4!1s0x373f265effffffff:0x6b6026b368b9b337!8m2!3d27.2910662!4d95.6694606?authuser=0&hl=en&rclk=1,27.2910662,95.6694606,Arunachal Pradesh,East
ASSA DIAGNOSTIC and NURSING HOME,Hospital,"TB Hospital, Pasighat",https://www.google.co.kr/maps/place/ASSA+DIAGNOSTIC+and+NURSING+HOME/data=!4m5!3m4!1s0x373f96c5350d9345:0xbebbfd743461defa!8m2!3d28.0680241!4d95.3221109?authuser=0&hl=en&rclk=1,28.0680241,95.3221109,Arunachal Pradesh,East
Tara Memorial Hospital,Hospital,"NH415, 791109",https://www.google.co.kr/maps/place/Tara+Memorial+Hospital/data=!4m5!3m4!1s0x374155e23fe5c8b9:0x3feb1b6ea18e52c4!8m2!3d27.1282547!4d93.7454005?authuser=0&hl=en&rclk=1,27.1282547,93.7454005,Arunachal Pradesh,East
POWAI HOSPITAL,Hospital,"9J3W+38R, Powai Forest Village, Assam 786171, India",https://www.google.co.kr/maps/place/POWAI+HOSPITAL/data=!4m5!3m4!1s0x373f2157e299f5ef:0x304036bb6cc6748!8m2!3d27.3527335!4d95.6457775?authuser=0&hl=en&rclk=1,27.3527335,95.6457775,Arunachal Pradesh,East
Jonekareng Primary Health Centre,Hospital,"Q5J8+6PP, Dhemaji, Assam 787060, India",https://www.google.co.kr/maps/place/Jonekareng+Primary+Health+Centre/data=!4m5!3m4!1s0x373f791e3487413d:0x735f0513f0275ebd!8m2!3d27.7805925!4d95.1668265?authuser=0&hl=en&rclk=1,27.7805925,95.1668265,Arunachal Pradesh,East
Dr Lal PathLabs,Diagnostic center,"NATIONAL HIGHWAY 52 A, MAIN ROAD, opp. TOMO RIBA GENERAL HOSPITAL, Naharlagun, Arunachal Pradesh 791110",https://www.google.co.kr/maps/place/Dr+Lal+PathLabs/data=!4m5!3m4!1s0x37440092c828395d:0x92d6fdaf0ca1e624!8m2!3d27.102304!4d93.691481?authuser=0&hl=en&rclk=1,27.102304,93.691481,Arunachal Pradesh,East
Jonai Civil Hospital,Hospital,"Assam 787060, India",https://www.google.co.kr/maps/place/Jonai+Civil+Hospital/data=!4m5!3m4!1s0x373f82a4a9213d5f:0x5cc6dffc67862bf!8m2!3d27.8376862!4d95.2113042?authuser=0&hl=en&rclk=1,27.8376862,95.2113042,Arunachal Pradesh,East
Jagun Mini PHC,Hospital,"NH 153, Katha Gaon, Assam 786188, India",https://www.google.co.kr/maps/place/Jagun+Mini+PHC/data=!4m5!3m4!1s0x373edd2a6614ab8b:0x7c87fb84d1611cb2!8m2!3d27.3794565!4d95.8954227?authuser=0&hl=en&rclk=1,27.3794565,95.8954227,Arunachal Pradesh,East
Bijoypur PHC,Hospital,"Q5G8+J29, Dhemaji, Assam 787060, India",https://www.google.co.kr/maps/place/Bijoypur+PHC/data=!4m5!3m4!1s0x373f793c8b886147:0x74c826be63d091af!8m2!3d27.7765497!4d95.1651032?authuser=0&hl=en&rclk=1,27.7765497,95.1651032,Arunachal Pradesh,East
CHC Miao,Hospital,"27°29'27.4""N 96°12'36.7""E, India",https://www.google.co.kr/maps/place/CHC+Miao/data=!4m5!3m4!1s0x373e973a31718f65:0xa35180643d9182e9!8m2!3d27.490931!4d96.210189?authuser=0&hl=en&rclk=1,27.490931,96.210189,Arunachal Pradesh,East
District Tuberclosis Centre,Medical Center,"X6J8+GQ9, Cona, Daporijo, Arunachal Pradesh 791122",https://www.google.co.kr/maps/place/District+Tuberclosis+Centre/data=!4m5!3m4!1s0x3741a5946601d783:0x45bbc80a2d7e0998!8m2!3d27.9812806!4d94.2169851?authuser=0&hl=en&rclk=1,27.9812806,94.2169851,Arunachal Pradesh,East
Simaluguri SHC,Hospital,"XP9X+FC8, Lakhimpur, Simaluguri, Assam 784165, India",https://www.google.co.kr/maps/place/Simaluguri+SHC/data=!4m5!3m4!1s0x3746a826780bfad3:0xa87e49a3dac870cc!8m2!3d26.968651!4d93.74857?authuser=0&hl=en&rclk=1,26.968651,93.74857,Arunachal Pradesh,East
Harmoti Mini PHC,Hospital,"Harmutty, Harmuti, Assam",https://www.google.co.kr/maps/place/Harmoti+Mini+PHC/data=!4m5!3m4!1s0x3746acb6380f65b5:0x90926b326e80b707!8m2!3d27.1131112!4d93.8439275?authuser=0&hl=en&rclk=1,27.1131112,93.8439275,Arunachal Pradesh,East
Coal India Hospital,Hospital,"Makrani Line Rd, Ledo, Assam 786182, India",https://www.google.co.kr/maps/place/Coal+India+Hospital/data=!4m5!3m4!1s0x373ed976708bfa81:0x72aba74370cd5c25!8m2!3d27.2938156!4d95.7552695?authuser=0&hl=en&rclk=1,27.2938156,95.7552695,Arunachal Pradesh,East
Unique Medicose And Diagnostic,Hospital,"SH 43, Bihpuria, Assam 784161, India",https://www.google.co.kr/maps/place/Unique+Medicose+And+Diagnostic/data=!4m5!3m4!1s0x3746b1e47a0aa651:0x9bef26e5e8abc511!8m2!3d27.0098547!4d93.9117584?authuser=0&hl=en&rclk=1,27.0098547,93.9117584,Arunachal Pradesh,East
"Angun Optical ,High Region Pasighat",Hospital,NH52,"https://www.google.co.kr/maps/place/Angun+Optical+,High+Region+Pasighat/data=!4m5!3m4!1s0x373f97bd573c97b9:0x291d206abc2f7da6!8m2!3d28.061899!4d95.3259357?authuser=0&hl=en&rclk=1",28.061899,95.3259357,Arunachal Pradesh,East
Mahabodhi Karuna Charitable Medical Centre,Medical Center,"G4Q5+74H, Jyotipur, Diyun, Arunachal Pradesh 792103, India",https://www.google.co.kr/maps/place/Mahabodhi+Karuna+Charitable+Medical+Centre/data=!4m5!3m4!1s0x373e930a2d85935d:0xccecaac930c71d5d!8m2!3d27.5381793!4d96.1078482?authuser=0&hl=en&rclk=1,27.5381793,96.1078482,Arunachal Pradesh,East
S.R. Drugs House,Medical clinic,"Lekhi Village, Naharlagun, Arunachal Pradesh 791110",https://www.google.co.kr/maps/place/S.R.+Drugs+House/data=!4m5!3m4!1s0x3743ff2ae452cf11:0xb3919f5e23617431!8m2!3d27.1249797!4d93.7252563?authuser=0&hl=en&rclk=1,27.1249797,93.7252563,Arunachal Pradesh,East
Bihpuria Government Hospital,Hospital,"2W49+HF5, Bihpuria, Assam 784161, India",https://www.google.co.kr/maps/place/Bihpuria+Government+Hospital/data=!4m5!3m4!1s0x3746b1e8d951e53d:0xc14b52a9fa46a13!8m2!3d27.0063816!4d93.9187255?authuser=0&hl=en&rclk=1,27.0063816,93.9187255,Arunachal Pradesh,East
APNC,Medical clinic,"Nursing Council, C- Sector, Naharlagun, Arunachal Pradesh 791110",https://www.google.co.kr/maps/place/APNC/data=!4m5!3m4!1s0x3744009485555555:0xa3cc2fcfbf01de45!8m2!3d27.1040339!4d93.6870462?authuser=0&hl=en&rclk=1,27.1040339,93.6870462,Arunachal Pradesh,East
kalyanee Medical,Medical Center,"Bihpuria - Borbali Rd, Bahgorah Deori, Rajbari Gaon, Assam 784161, India",https://www.google.co.kr/maps/place/kalyanee+Medical/data=!4m5!3m4!1s0x3746b1f77e2c916b:0x4468c523adfe8cbf!8m2!3d27.0220254!4d93.9164817?authuser=0&hl=en&rclk=1,27.0220254,93.9164817,Arunachal Pradesh,East
Dr Lal PathLabs,Diagnostic center,"opp. BSNL Office, Bank Tiniali, Cona County, Itanagar, Arunachal Pradesh 791111",https://www.google.co.kr/maps/place/Dr+Lal+PathLabs/data=!4m5!3m4!1s0x374407b44275e53d:0x307af87d7f98ff6c!8m2!3d27.084368!4d93.605316?authuser=0&hl=en&rclk=1,27.084368,93.605316,Arunachal Pradesh,East
Makunda Christian Leprosy and General Hospital,General hospital,"Bazaricherra, Karimganj, Assam 788727, India",https://www.google.co.kr/maps/place/Makunda+Christian+Leprosy+and+General+Hospital/data=!4m5!3m4!1s0x3751e668f510e06b:0xf378e3fcdef6bcc3!8m2!3d24.4320197!4d92.3306894?authuser=0&hl=en&rclk=1,24.4320197,92.3306894,Assam,East
"Narayana Superspeciality Hospital, Guwahati",Hospital,"Civil Hospital Complex Greenland Restaurant Tularam Bafna, Amingaon, Guwahati, Assam 781031, India","https://www.google.co.kr/maps/place/Narayana+Superspeciality+Hospital,+Guwahati/data=!4m5!3m4!1s0x375a5ab28a679979:0xb0b8162cac1a1986!8m2!3d26.2077161!4d91.6776602?authuser=0&hl=en&rclk=1",26.2077161,91.6776602,Assam,East
UNITED HOSPITAL,General hospital,"Circuit House, Road, Raj Nagar, Nalbari, Assam 781335, India",https://www.google.co.kr/maps/place/UNITED+HOSPITAL/data=!4m5!3m4!1s0x375bcc90f7c384c9:0x5feed51f199bf987!8m2!3d26.4444749!4d91.432136?authuser=0&hl=en&rclk=1,26.4444749,91.432136,Assam,East
Dispur Hospitals Private Limited,Private hospital,"Ganeshguri Flyover, GMC Ward Number 44, Swaraj Nagar, Ganeshguri, Guwahati, Assam 781006, India",https://www.google.co.kr/maps/place/Dispur+Hospitals+Private+Limited/data=!4m5!3m4!1s0x375a5918bbf15167:0x55cdfb20dff0d0bb!8m2!3d26.149691!4d91.7865839?authuser=0&hl=en&rclk=1,26.149691,91.7865839,Assam,East
Agile Hospitals Private Limited,Private hospital,"Tripura Rd Beltola, Jayanagar Chariali, Khanapara, Guwahati, Assam 781022, India",https://www.google.co.kr/maps/place/Agile+Hospitals+Private+Limited/data=!4m5!3m4!1s0x375a5f330cf3f517:0xe3e1cdbed2ba600f!8m2!3d26.1222234!4d91.8059635?authuser=0&hl=en&rclk=1,26.1222234,91.8059635,Assam,East
Hayat Hospital,Hospital,"Kahilipara Main Rd, Odalbakra, Kahilipara, Guwahati, Assam 781034, India",https://www.google.co.kr/maps/place/Hayat+Hospital/data=!4m5!3m4!1s0x375a5be51bf57fbf:0xfdf263c0492a4389!8m2!3d26.1390902!4d91.7462166?authuser=0&hl=en&rclk=1,26.1390902,91.7462166,Assam,East
Cancer Hospital,Hospital,"5Q58+X3C, Bhangagarh, Guwahati, Assam 781007, India",https://www.google.co.kr/maps/place/Cancer+Hospital/data=!4m5!3m4!1s0x375a596e21aac1ff:0x23f85a3aed117027!8m2!3d26.159925!4d91.7651447?authuser=0&hl=en&rclk=1,26.159925,91.7651447,Assam,East
Mahendra Mohan Choudhury Hospital,General hospital,"MG Road, Fancy Bazaar, Guwahati, Assam 781001, India",https://www.google.co.kr/maps/place/Mahendra+Mohan+Choudhury+Hospital/data=!4m5!3m4!1s0x375a5a3a132c4573:0x4f3420c9d5a33d8!8m2!3d26.1855023!4d91.7405819?authuser=0&hl=en&rclk=1,26.1855023,91.7405819,Assam,East
Maina Khurung Model Hospital,Hospital,"4P45+324, GARCHUK, Guwahati, Assam 781035, India",https://www.google.co.kr/maps/place/Maina+Khurung+Model+Hospital/data=!4m5!3m4!1s0x375a5dfcf12efd0b:0xab9e37ed104f0a49!8m2!3d26.1051267!4d91.7075744?authuser=0&hl=en&rclk=1,26.1051267,91.7075744,Assam,East
Sun Valley Hospital,General hospital,"GS Rd, Mathura Nagar, Bormotoria, Guwahati, Assam 781022, India",https://www.google.co.kr/maps/place/Sun+Valley+Hospital/data=!4m5!3m4!1s0x375a58daeb8993c1:0x4df8cb82405720ca!8m2!3d26.1382879!4d91.8010681?authuser=0&hl=en&rclk=1,26.1382879,91.8010681,Assam,East
"District Hospital, Sonapur Kamrup Metro",Hospital,"NH 27, Amara N.C., Assam 782402, India","https://www.google.co.kr/maps/place/District+Hospital,+Sonapur+Kamrup+Metro/data=!4m5!3m4!1s0x375af21d6f0b974f:0x8b2a214c3b415da4!8m2!3d26.1216132!4d91.9767002?authuser=0&hl=en&rclk=1",26.1216132,91.9767002,Assam,East
Samoguri Hospital,Hospital,"CVC3+6C7, Kuruabahi, Assam 782140, India",https://www.google.co.kr/maps/place/Samoguri+Hospital/data=!4m5!3m4!1s0x3744e1bf83bc7d8b:0x2e6c57cc3583de48!8m2!3d26.4205421!4d92.8535338?authuser=0&hl=en&rclk=1,26.4205421,92.8535338,Assam,East
GNRC Hospital,Hospital,"Super Market, GNRC Rd, Dispur, Rukmini Gaon, Guwahati, Assam 781005, India",https://www.google.co.kr/maps/place/GNRC+Hospital/data=!4m5!3m4!1s0x375a58d85b0d032f:0x5e121ca48b961c42!8m2!3d26.1389556!4d91.7944378?authuser=0&hl=en&rclk=1,26.1389556,91.7944378,Assam,East
Old Civil Hospital,Hospital,"PF3G+PWR, Dhekiajuli, Assam 784110, India",https://www.google.co.kr/maps/place/Old+Civil+Hospital/data=!4m5!3m4!1s0x3744cb408398e4cd:0xc950854d1b606a64!8m2!3d26.704375!4d92.4772616?authuser=0&hl=en&rclk=1,26.704375,92.4772616,Assam,East
Mission Hospital,Hospital,"P6Q2+CFV, Barbheta, Jorhat, Assam 785001, India",https://www.google.co.kr/maps/place/Mission+Hospital/data=!4m5!3m4!1s0x3746c28317a89a0b:0xf583abcdc799d283!8m2!3d26.7386151!4d94.2011584?authuser=0&hl=en&rclk=1,26.7386151,94.2011584,Assam,East
Jorhat Christian Medical Centre,Hospital,"P6Q2+876, Barbheta, Jorhat, Assam 785001, India",https://www.google.co.kr/maps/place/Jorhat+Christian+Medical+Centre/data=!4m5!3m4!1s0x3746c28304d11113:0xabeab2f62faa73b6!8m2!3d26.7382753!4d94.200638?authuser=0&hl=en&rclk=1,26.7382753,94.200638,Assam,East
Aruna Memorial Hospital,Hospital,"Rajgarh Rd, SATSANG VIHAR, Bhangagarh, Guwahati, Assam 781005, India",https://www.google.co.kr/maps/place/Aruna+Memorial+Hospital/data=!4m5!3m4!1s0x375a5973f78d6627:0xd1a9fa527479c426!8m2!3d26.1661234!4d91.7689558?authuser=0&hl=en&rclk=1,26.1661234,91.7689558,Assam,East
Down Town Hospital,General hospital,"GS Rd, Bormotoria, Guwahati, Assam 781006, India",https://www.google.co.kr/maps/place/Down+Town+Hospital/data=!4m5!3m4!1s0x375a58da452a4b35:0x12fc40f65c6d1a5c!8m2!3d26.1391639!4d91.7993515?authuser=0&hl=en&rclk=1,26.1391639,91.7993515,Assam,East
Makunda Mission Hospital,General hospital,"98XQ+V28, Dakshin Sagolmar, Assam 788727, India",https://www.google.co.kr/maps/place/Makunda+Mission+Hospital/data=!4m5!3m4!1s0x3751e569b1eddcd9:0x6f18962d54d4182a!8m2!3d24.3996505!4d92.3375817?authuser=0&hl=en&rclk=1,24.3996505,92.3375817,Assam,East
Smaguri Hospital,Hospital,"CV92+WJH, Kuruabahi, Assam 782140, India",https://www.google.co.kr/maps/place/Smaguri+Hospital/data=!4m5!3m4!1s0x3744e18c1792fdf5:0x78af838ff3dc5338!8m2!3d26.4198193!4d92.8515944?authuser=0&hl=en&rclk=1,26.4198193,92.8515944,Assam,East
Hospital,Hospital,"JH3W+MJX, Rajyeswarpur Pt II, Assam 788168, India",https://www.google.co.kr/maps/place/Hospital/data=!4m5!3m4!1s0x374e2498df80100b:0xd8a5ed373f0f042a!8m2!3d24.6042421!4d92.5966063?authuser=0&hl=en&rclk=1,24.6042421,92.5966063,Assam,East
International Hospital,Hospital,"5Q3J+G9X, Ganeshguri, Guwahati, Assam 781006, India",https://www.google.co.kr/maps/place/International+Hospital/data=!4m5!3m4!1s0x375a59a5f67f9add:0xd630a40a2569360!8m2!3d26.1538691!4d91.7809697?authuser=0&hl=en&rclk=1,26.1538691,91.7809697,Assam,East
Bezera CHC,Hospital,"Baihata-Goreswar Rd, North Guwahati, Bezera, Assam 781121, India",https://www.google.co.kr/maps/place/Bezera+CHC/data=!4m5!3m4!1s0x375a5447c0624173:0x4c13dc6622fc5962!8m2!3d26.3391935!4d91.7819391?authuser=0&hl=en&rclk=1,26.3391935,91.7819391,Assam,East
Baptist Christian Hospital,Hospital,"Mission Chariali, Ketekibari, Tezpur, Assam 784001, India",https://www.google.co.kr/maps/place/Baptist+Christian+Hospital/data=!4m5!3m4!1s0x3744c20caf36fd9b:0x9bba5203c5b961c1!8m2!3d26.6526312!4d92.7726626?authuser=0&hl=en&rclk=1,26.6526312,92.7726626,Assam,East
Swagat Super Speciality Surgical Hospital,Hospital,"Assam Trunk Rd, Maligaon, Guwahati, Assam 781010, India",https://www.google.co.kr/maps/place/Swagat+Super+Speciality+Surgical+Hospital/data=!4m5!3m4!1s0x375a5a33dda16881:0x4858c1c8eceabb07!8m2!3d26.1603384!4d91.7074407?authuser=0&hl=en&rclk=1,26.1603384,91.7074407,Assam,East
Naltoli PHC,Hospital,"HV2V+677, Dhanekhowa, Assam 782143, India",https://www.google.co.kr/maps/place/Naltoli+PHC/data=!4m5!3m4!1s0x3744e5a15b66cfad:0xa43a2c1cd7082902!8m2!3d26.550529!4d92.8931674?authuser=0&hl=en&rclk=1,26.550529,92.8931674,Assam,East
Burrows Memorial Christian Hospital,Hospital,"RWFX+GHF, Monipur Pt II, Assam 788101, India",https://www.google.co.kr/maps/place/Burrows+Memorial+Christian+Hospital/data=!4m5!3m4!1s0x374e5263166999d7:0xd1a644d5dc448a9c!8m2!3d24.8238108!4d92.9489172?authuser=0&hl=en&rclk=1,24.8238108,92.9489172,Assam,East
Kharupetia Civil Hospital,Hospital,"Kharupetia-Udalguri Rd, Kharupetia, Assam 784115, India",https://www.google.co.kr/maps/place/Kharupetia+Civil+Hospital/data=!4m5!3m4!1s0x375b2276ee327429:0x4030a4514bc3465b!8m2!3d26.5291552!4d92.148889?authuser=0&hl=en&rclk=1,26.5291552,92.148889,Assam,East
Mohkhuli Maternity & Child Health Hospital,Hospital,"Fakharuddin Ali Ahmed Rd, Haibargaon, Daccapatty, Nagaon, Assam 782001, India",https://www.google.co.kr/maps/place/Mohkhuli+Maternity+%26+Child+Health+Hospital/data=!4m5!3m4!1s0x374527400bccbd63:0xd87a2d63dbc409cd!8m2!3d26.3448681!4d92.6894976?authuser=0&hl=en&rclk=1,26.3448681,92.6894976,Assam,East
M R Agarwal Hospital,Private hospital,"Digboi, Assam 786171, India",https://www.google.co.kr/maps/place/M+R+Agarwal+Hospital/data=!4m5!3m4!1s0x373f224f087e9c99:0xdf1d42783b3377e7!8m2!3d27.3993634!4d95.6170054?authuser=0&hl=en&rclk=1,27.3993634,95.6170054,Assam,East
Nonoi Hospital,Hospital,"Nagaon, Assam 782101, India",https://www.google.co.kr/maps/place/Nonoi+Hospital/data=!4m5!3m4!1s0x3744e2bd0ccfcd07:0x3025bd406f7e9560!8m2!3d26.4040006!4d92.9188737?authuser=0&hl=en&rclk=1,26.4040006,92.9188737,Assam,East
Hospital,Hospital,"J7MC+WQJ, Garogaon, Assam 784114, India",https://www.google.co.kr/maps/place/Hospital/data=!4m5!3m4!1s0x375b3af836e7bc33:0x2785bca83f570163!8m2!3d26.6348427!4d92.271882?authuser=0&hl=en&rclk=1,26.6348427,92.271882,Assam,East
Sub center,Hospital,"CPHX+796, Ghunabari, Rupahi Town, Assam 782125, India",https://www.google.co.kr/maps/place/Sub+center/data=!4m5!3m4!1s0x3744dfbaab8b39e7:0xca9ab031c9af9dd5!8m2!3d26.4281638!4d92.7483887?authuser=0&hl=en&rclk=1,26.4281638,92.7483887,Assam,East
S. A. Medical Hall,Hospital,"9HJF+RQ5, Palepara, Assam 781380, India",https://www.google.co.kr/maps/place/S.+A.+Medical+Hall/data=!4m5!3m4!1s0x375a4b141b4d3dad:0xbdbc1e8d045733ff!8m2!3d26.3820079!4d91.5744989?authuser=0&hl=en&rclk=1,26.3820079,91.5744989,Assam,East
Ayushman Hospital,Hospital,"Lalmati, Guwahati, Assam 781040, India",https://www.google.co.kr/maps/place/Ayushman+Hospital/data=!4m5!3m4!1s0x375a5ebb74658e51:0x79dba7dabf569c2b!8m2!3d26.1086532!4d91.7658228?authuser=0&hl=en&rclk=1,26.1086532,91.7658228,Assam,East
SGMP Hospital,Hospital,"Fayez Ahmed Rd, Near Railway Gate No. 6, Machkhowa, Guwahati, Assam 781001, India",https://www.google.co.kr/maps/place/SGMP+Hospital/data=!4m5!3m4!1s0x375a5a35170f6797:0x64a4a1a785b4f5d6!8m2!3d26.1744816!4d91.736128?authuser=0&hl=en&rclk=1,26.1744816,91.736128,Assam,East
Red Cross Hospital,Hospital,"2, Milanpur Rd, Milanpur, West Jyotinagar, Bamunimaidan, Guwahati, Assam 781004, India",https://www.google.co.kr/maps/place/Red+Cross+Hospital/data=!4m5!3m4!1s0x375a59bb0d14d293:0x7785db3581d772c2!8m2!3d26.1863237!4d91.7796011?authuser=0&hl=en&rclk=1,26.1863237,91.7796011,Assam,East
Sree Sonhar Medicine Hospital,Hospital,"Chitraban, Nagaon, Assam 782001, India",https://www.google.co.kr/maps/place/Sree+Sonhar+Medicine+Hospital/data=!4m5!3m4!1s0x3745272c92255207:0x14dfce6b2ef59162!8m2!3d26.3539816!4d92.6966421?authuser=0&hl=en&rclk=1,26.3539816,92.6966421,Assam,East
Mercy Hospital,Hospital,"Mercy Rd, Nagaon, Assam 782002, India",https://www.google.co.kr/maps/place/Mercy+Hospital/data=!4m5!3m4!1s0x374527b6e3bf4afd:0xb73dc7e5ad6bec9b!8m2!3d26.3474093!4d92.6640136?authuser=0&hl=en&rclk=1,26.3474093,92.6640136,Assam,East
Mohkhuli Maternity & Child Health Hospital,Hospital,"Laokhowa Rd, Mohkhuli Chariali, Assam 782141, India",https://www.google.co.kr/maps/place/Mohkhuli+Maternity+%26+Child+Health+Hospital/data=!4m5!3m4!1s0x3745218b51b46359:0xda4e88da2777e5b1!8m2!3d26.3672011!4d92.7144076?authuser=0&hl=en&rclk=1,26.3672011,92.7144076,Assam,East
Aditya Diagnostics and Hospital (Tinsukia),Hospital,"Rangagora Rd, Tinsukia, Assam 786125, India",https://www.google.co.kr/maps/place/Aditya+Diagnostics+and+Hospital+(Tinsukia)/data=!4m5!3m4!1s0x373f6b7594b7aedd:0x1c81ee2d55082610!8m2!3d27.5379943!4d95.325002?authuser=0&hl=en&rclk=1,27.5379943,95.325002,Assam,East
Md.muksidul islam,Hospital,"Kawaimari, Assam 782140, India",https://www.google.co.kr/maps/place/Md.muksidul+islam/data=!4m5!3m4!1s0x3744e127aaaaaaab:0x67be9eb9b7c51f72!8m2!3d26.4713293!4d92.8203207?authuser=0&hl=en&rclk=1,26.4713293,92.8203207,Assam,East
Life LineHospital,Private hospital,"ATC Mall, GNB Rd, opposite to, Tinsukia, Assam 786125, India",https://www.google.co.kr/maps/place/Life+LineHospital/data=!4m5!3m4!1s0x373f6afd6af0e389:0x3609ca87f2857eed!8m2!3d27.4926087!4d95.3609975?authuser=0&hl=en&rclk=1,27.4926087,95.3609975,Assam,East
Raidongia Hospital,Hospital,"Karchung Satra, Assam 782002, India",https://www.google.co.kr/maps/place/Raidongia+Hospital/data=!4m5!3m4!1s0x374529fef2f70419:0x446ab0bf6c253b5b!8m2!3d26.3662017!4d92.596271?authuser=0&hl=en&rclk=1,26.3662017,92.596271,Assam,East
District Hospital Sonapur,Government hospital,"NH 37, Amara N.C., Assam 782402, India",https://www.google.co.kr/maps/place/District+Hospital+Sonapur/data=!4m5!3m4!1s0x375af21d747953d7:0xfa8272d46ca10660!8m2!3d26.1211975!4d91.9762087?authuser=0&hl=en&rclk=1,26.1211975,91.9762087,Assam,East
Thakur Homoeo Clinic,Hospital,"4RQ5+Q65, Madartoli, Assam 782440, India",https://www.google.co.kr/maps/place/Thakur+Homoeo+Clinic/data=!4m5!3m4!1s0x3745165b4bf2471f:0x65806c13ff4a1599!8m2!3d26.1393935!4d92.8081116?authuser=0&hl=en&rclk=1,26.1393935,92.8081116,Assam,East
Lankeswari Nursing Home,Hospital,"WXF2+938, Lanka, Assam 782446, India",https://www.google.co.kr/maps/place/Lankeswari+Nursing+Home/data=!4m5!3m4!1s0x3745730e96c8346d:0x3eb1dc312fd692b0!8m2!3d25.9234103!4d92.9502049?authuser=0&hl=en&rclk=1,25.9234103,92.9502049,Assam,East
Batamari SC,Hospital,"CHW8+VH5, Bata Mari, Assam 782122, India",https://www.google.co.kr/maps/place/Batamari+SC/data=!4m5!3m4!1s0x3744d6f6fb9e5397:0xbae0f96a71b183b5!8m2!3d26.4471326!4d92.5664771?authuser=0&hl=en&rclk=1,26.4471326,92.5664771,Assam,East
Hojai District Civil Hospital,Hospital,"XWJF+WWG, Pam Gaon, Assam 782442, India",https://www.google.co.kr/maps/place/Hojai+District+Civil+Hospital/data=!4m5!3m4!1s0x37456d654a4b05f7:0x2111b429e6670465!8m2!3d25.9823012!4d92.924826?authuser=0&hl=en&rclk=1,25.9823012,92.924826,Assam,East
Buragohain Than PHC,Hospital,"Kandoli Rd, Kasoi Guri, Assam 782144, India",https://www.google.co.kr/maps/place/Buragohain+Than+PHC/data=!4m5!3m4!1s0x374525002d11ebff:0x9737fc13266a3bd9!8m2!3d26.250413!4d92.65812?authuser=0&hl=en&rclk=1,26.250413,92.65812,Assam,East
Krsnaa Diagnostics (MANGALDAI CIVIL HOSPITAL),Diagnostic center,"NH 52, Ward No-2, Mangaldoi, Assam 784125, India",https://www.google.co.kr/maps/place/Krsnaa+Diagnostics+(MANGALDAI+CIVIL+HOSPITAL)/data=!4m5!3m4!1s0x375b1da527c467af:0x34ce14d3d55eaf9b!8m2!3d26.4375327!4d92.0364538?authuser=0&hl=en&rclk=1,26.4375327,92.0364538,Assam,East
Civil Hospital,Government hospital,"Kalibari Rd, Lumding, Assam 782447, India",https://www.google.co.kr/maps/place/Civil+Hospital/data=!4m5!3m4!1s0x37458386e36fc215:0x74a9afd2047c20fc!8m2!3d25.7623791!4d93.1751863?authuser=0&hl=en&rclk=1,25.7623791,93.1751863,Assam,East
Tamulpur Veterinary Hospital,Hospital,"JH6F+MPH, Barkhopa, Assam 781367, India",https://www.google.co.kr/maps/place/Tamulpur+Veterinary+Hospital/data=!4m5!3m4!1s0x375bb9c3569bd6d5:0x9e19679c002ea892!8m2!3d26.6116951!4d91.5743588?authuser=0&hl=en&rclk=1,26.6116951,91.5743588,Assam,East
Pratiksha Hospitals,Hospital,"Mahapurush Madhabdev Path, Borbari, Guwahati, Assam 781036, India",https://www.google.co.kr/maps/place/Pratiksha+Hospitals/data=!4m5!3m4!1s0x375a58ed484ce947:0xddb45394ff390048!8m2!3d26.1584955!4d91.8118724?authuser=0&hl=en&rclk=1,26.1584955,91.8118724,Assam,East
Homeo Clinic Tubukijarani,Hospital,"Unnamed Road, Pub Larimukh, Assam 782120, India",https://www.google.co.kr/maps/place/Homeo+Clinic+Tubukijarani/data=!4m5!3m4!1s0x3744e6f4ce2208f7:0xcd2d1843cb4f2924!8m2!3d26.5291445!4d92.8373624?authuser=0&hl=en&rclk=1,26.5291445,92.8373624,Assam,East
"Health City Hospital, Guwahati",Private hospital,"Uday Nagar, Khanapara, Opp Bodoland Guest House, Guwahati, Assam 781022, India","https://www.google.co.kr/maps/place/Health+City+Hospital,+Guwahati/data=!4m5!3m4!1s0x375a5f4972775d49:0xc2bb138442c92a59!8m2!3d26.117117!4d91.815292?authuser=0&hl=en&rclk=1",26.117117,91.815292,Assam,East
Cherish hospital and diagnostic centre,Hospital,"Cherish hospital and diagnostic centre, Margherita, Assam 786181, India",https://www.google.co.kr/maps/place/Cherish+hospital+and+diagnostic+centre/data=!4m5!3m4!1s0x373f265c4d5f1879:0xd8cc664c299c94ce!8m2!3d27.2857711!4d95.6683001?authuser=0&hl=en&rclk=1,27.2857711,95.6683001,Assam,East
Kuthori Mini PHC,Government hospital,"H6FV+Q3W, Kuthori, Nagaon, Assam 782136, India",https://www.google.co.kr/maps/place/Kuthori+Mini+PHC/data=!4m5!3m4!1s0x37445bc7fc040ad1:0x1ff5947ae26f88e1!8m2!3d26.5744849!4d93.2427106?authuser=0&hl=en&rclk=1,26.5744849,93.2427106,Assam,East
SA'AD HOMEO CLINIC,Hospital,"Bhehuguri, Silpukhuri, Mikirbheta, Morigaon, Assam, India.PIN, 782123, India",https://www.google.co.kr/maps/place/SA'AD+HOMEO+CLINIC/data=!4m5!3m4!1s0x37452b451b0614e9:0xc664a568ba088945!8m2!3d26.3245549!4d92.462887?authuser=0&hl=en&rclk=1,26.3245549,92.462887,Assam,East
"Air Passanger Screening Centre, Tikal(Salganga) Model Hospital",Hospital,"Tikal Road, Salganga, Assam 788031, India","https://www.google.co.kr/maps/place/Air+Passanger+Screening+Centre,+Tikal(Salganga)+Model+Hospital/data=!4m5!3m4!1s0x374fada05bfe5771:0x3d2fe5866099b547!8m2!3d24.9246453!4d92.9597501?authuser=0&hl=en&rclk=1",24.9246453,92.9597501,Assam,East
Koushik MEDICOSE,Hospital,"Assam Engineering College, Assam, India",https://www.google.co.kr/maps/place/Koushik+MEDICOSE/data=!4m5!3m4!1s0x375a44961503f2cd:0x25dad36bb4029d50!8m2!3d26.1428918!4d91.6555516?authuser=0&hl=en&rclk=1,26.1428918,91.6555516,Assam,East
Florence Hospital,Hospital,"Pancharatna Rd, Goalpara, Assam 783101, India",https://www.google.co.kr/maps/place/Florence+Hospital/data=!4m5!3m4!1s0x3759b31760cab0e5:0xec204438e5a39286!8m2!3d26.1696802!4d90.6238925?authuser=0&hl=en&rclk=1,26.1696802,90.6238925,Assam,East
J.J. Memorial Hospital,Hospital,"Lokpriya Gopinath Bordoloi Avenue, near Circuit House, Assam 786001, India",https://www.google.co.kr/maps/place/J.J.+Memorial+Hospital/data=!4m5!3m4!1s0x374098433ce996ab:0x1576cfeea7f1ce4b!8m2!3d27.4899131!4d94.9237143?authuser=0&hl=en&rclk=1,27.4899131,94.9237143,Assam,East
Civil Hospital,Hospital,"44, S.C Goswami Rd, Pan Bazaar, Guwahati, Assam 781001, India",https://www.google.co.kr/maps/place/Civil+Hospital/data=!4m5!3m4!1s0x375a5a30837017cb:0x89f5c3674bfc4a72!8m2!3d26.1842564!4d91.7412562?authuser=0&hl=en&rclk=1,26.1842564,91.7412562,Assam,East
Guwahati Refinery Hospital,Private hospital,"5RM3+V89, Noonmati, Guwahati, Assam 781020, India",https://www.google.co.kr/maps/place/Guwahati+Refinery+Hospital/data=!4m5!3m4!1s0x375a584545af6d3f:0xd9651fd830f3dd3!8m2!3d26.184662!4d91.8033725?authuser=0&hl=en&rclk=1,26.184662,91.8033725,Assam,East
MPHC Hospital,Hospital,"8PHM+M4V, Sanermukh, Assam 783384, India",https://www.google.co.kr/maps/place/MPHC+Hospital/data=!4m5!3m4!1s0x3759a94074cae77f:0x7b2cdfb260ffb1cc!8m2!3d26.3292464!4d90.7327829?authuser=0&hl=en&rclk=1,26.3292464,90.7327829,Assam,East
Mahakal Hospital Block,Hospital,"RFXV+R4R, Mahakal Pt I, Assam 788701, India",https://www.google.co.kr/maps/place/Mahakal+Hospital+Block/data=!4m5!3m4!1s0x374e2ae5166d3cc1:0x1a45ab186d830e2c!8m2!3d24.8496029!4d92.4927806?authuser=0&hl=en&rclk=1,24.8496029,92.4927806,Assam,East
Guwahati Metro Hospital,Hospital,"Uday Nagar, Khanapara, opp. Bodoland Guest, Guwahati, Assam 781022, India",https://www.google.co.kr/maps/place/Guwahati+Metro+Hospital/data=!4m5!3m4!1s0x375a5f82dbb8ea93:0xacbf82ab685a3d45!8m2!3d26.1175971!4d91.8158397?authuser=0&hl=en&rclk=1,26.1175971,91.8158397,Assam,East
Hospital,Hospital,"4QPP+G98, MEDICITY, Basisthpur, Guwahati, Assam 781038, India",https://www.google.co.kr/maps/place/Hospital/data=!4m5!3m4!1s0x375a598b145babaf:0x9b814c80f08e9356!8m2!3d26.1362764!4d91.7859392?authuser=0&hl=en&rclk=1,26.1362764,91.7859392,Assam,East
Sukhada Hospital,Hospital,"JRP8+X4V, Dolabari, Tezpur, Assam 784027, India",https://www.google.co.kr/maps/place/Sukhada+Hospital/data=!4m5!3m4!1s0x3744e9a8f610218b:0x8b992ca92f5f1f00!8m2!3d26.6374962!4d92.8152935?authuser=0&hl=en&rclk=1,26.6374962,92.8152935,Assam,East
Nonoi hospital,Hospital,"7P9J+54F, Nam Gumutha, Assam 782003, India",https://www.google.co.kr/maps/place/Nonoi+hospital/data=!4m5!3m4!1s0x374523b0e71ee923:0xc1ff0def0ae17e07!8m2!3d26.2679413!4d92.7303044?authuser=0&hl=en&rclk=1,26.2679413,92.7303044,Assam,East
Amluckhi Bagan Hospital,Hospital,"Borhola, Assam 782101, India",https://www.google.co.kr/maps/place/Amluckhi+Bagan+Hospital/data=!4m5!3m4!1s0x3744e326f0ae0271:0x7245d5449fe2ff05!8m2!3d26.4405444!4d92.9247531?authuser=0&hl=en&rclk=1,26.4405444,92.9247531,Assam,East
Dhubri Civil Hospital,Government hospital,"Jhagrarpar, Dhubri, Assam 783324, India",https://www.google.co.kr/maps/place/Dhubri+Civil+Hospital/data=!4m5!3m4!1s0x39e2a02ca4a131f7:0x138932c8e6a1be12!8m2!3d26.0353591!4d89.9646381?authuser=0&hl=en&rclk=1,26.0353591,89.9646381,Assam,East
Pakhi Medical(Shafikul Islam),Medical Center,"Borghuli Bazar High madrassa Road, Assam, India",https://www.google.co.kr/maps/place/Pakhi+Medical(Shafikul+Islam)/data=!4m5!3m4!1s0x3744e79f4fd174b3:0x3292670b6027578b!8m2!3d26.5532493!4d92.8434041?authuser=0&hl=en&rclk=1,26.5532493,92.8434041,Assam,East
Alitanoani Sub PHC Hospital,Hospital,"Alitangani, Nagaon, SH-3, Juria Borduwa Doad, Nagaon, Nagaon, Assam 782124, India",https://www.google.co.kr/maps/place/Alitanoani+Sub+PHC+Hospital/data=!4m5!3m4!1s0x3744d7bf7fcf69eb:0xf8004061c58e540!8m2!3d26.419599!4d92.596484?authuser=0&hl=en&rclk=1,26.419599,92.596484,Assam,East
Haflong Civil Hospital,Government hospital,"NH 54, Surat Nagar, Songpijaang, Haflong, Assam 788819, India",https://www.google.co.kr/maps/place/Haflong+Civil+Hospital/data=!4m5!3m4!1s0x374fa1510b41ae1b:0xe4b95561b4ecd5ec!8m2!3d25.1834405!4d93.0111276?authuser=0&hl=en&rclk=1,25.1834405,93.0111276,Assam,East
Infectious Disease Hospital,Hospital,"Birubari, Guwahati, Assam 781016, India",https://www.google.co.kr/maps/place/Infectious+Disease+Hospital/data=!4m5!3m4!1s0x375a5bc449f5099f:0xcffc5a1c7418398f!8m2!3d26.158637!4d91.749448?authuser=0&hl=en&rclk=1,26.158637,91.749448,Assam,East
Jajori Dispensary,Hospital,"Jajori-Dhing Rd, Jajari, Assam 782142, India",https://www.google.co.kr/maps/place/Jajori+Dispensary/data=!4m5!3m4!1s0x37452939b1d1fe4f:0xf093d2db7674d4f6!8m2!3d26.3161372!4d92.5623438?authuser=0&hl=en&rclk=1,26.3161372,92.5623438,Assam,East
"GNRC Medical, North Guwahati",Private hospital,"IIT Road Near IIT Sila Grant, Guwahati, Assam 781030, India","https://www.google.co.kr/maps/place/GNRC+Medical,+North+Guwahati/data=!4m5!3m4!1s0x375a5abe7c94de59:0xe412cc5a9433778e!8m2!3d26.2025768!4d91.6935454?authuser=0&hl=en&rclk=1",26.2025768,91.6935454,Assam,East
Bhurbandha Model Hospital,Government hospital,"8947+Q9X, Bhurbandha, Assam 782104, India",https://www.google.co.kr/maps/place/Bhurbandha+Model+Hospital/data=!4m5!3m4!1s0x375ad6b53d4ccc3d:0x470ad7b8fcce43e!8m2!3d26.3069815!4d92.3634697?authuser=0&hl=en&rclk=1,26.3069815,92.3634697,Assam,East
Primary Health Centre,Hospital,"Kadamoni, Batadrava, Nagaon, SH-47, Nagaon, Nagaon, Assam 782122, India",https://www.google.co.kr/maps/place/Primary+Health+Centre/data=!4m5!3m4!1s0x3744d5cf09758d75:0xb88ee876ce7190d!8m2!3d26.4345044!4d92.5271369?authuser=0&hl=en&rclk=1,26.4345044,92.5271369,Assam,East
Phulani Medical.,Hospital,"53CG+WPX, Phulani, Assam 782481, India",https://www.google.co.kr/maps/place/Phulani+Medical./data=!4m5!3m4!1s0x374508406c4a8e61:0x9df16806e85d97da!8m2!3d26.172352!4d93.076866?authuser=0&hl=en&rclk=1,26.172352,93.076866,Assam,East
Medinova Hospital,Hospital,"Barama Rd, Nalbari, Assam 781335, India",https://www.google.co.kr/maps/place/Medinova+Hospital/data=!4m5!3m4!1s0x375bcc91d4e01fd9:0x589cb74c32c69f5c!8m2!3d26.4477344!4d91.4301703?authuser=0&hl=en&rclk=1,26.4477344,91.4301703,Assam,East
Ambagan Hospital,Hospital,"GV93+5M6, Pub Larimukh, Assam 782120, India",https://www.google.co.kr/maps/place/Ambagan+Hospital/data=!4m5!3m4!1s0x3744e69cf5a05885:0x4657f1391ad1aeb6!8m2!3d26.5179212!4d92.8541326?authuser=0&hl=en&rclk=1,26.5179212,92.8541326,Assam,East
IOCL Hospital,Hospital,"9JVH+4QV, Digboi, Assam 786171, India",https://www.google.co.kr/maps/place/IOCL+Hospital/data=!4m5!3m4!1s0x373f22347ac13aff:0x8ea5ac3b6e0115d2!8m2!3d27.392869!4d95.629431?authuser=0&hl=en&rclk=1,27.392869,95.629431,Assam,East
Jugijan Hospital,Hospital,"2RV2+75R, Jugijan, Assam 782429, India",https://www.google.co.kr/maps/place/Jugijan+Hospital/data=!4m5!3m4!1s0x3745151487f7197b:0x5b19d10e2012e467!8m2!3d26.0432414!4d92.8003781?authuser=0&hl=en&rclk=1,26.0432414,92.8003781,Assam,East
Aditya Hospital and Diagnostic Center,Hospital,"Assam Medical College Road, Bordoloi Avenue, Paltan Bazaar, Dibrugarh, Assam 786005, India",https://www.google.co.kr/maps/place/Aditya+Hospital+and+Diagnostic+Center/data=!4m5!3m4!1s0x3740985eb676f3ad:0xa5617a035638273a!8m2!3d27.491493!4d94.9314669?authuser=0&hl=en&rclk=1,27.491493,94.9314669,Assam,East
Jorshimuli Hospital,Hospital,"Kalatoli-Choutara Rd, Choudhuri Pum, Assam 781137, India",https://www.google.co.kr/maps/place/Jorshimuli+Hospital/data=!4m5!3m4!1s0x37598a3c737f3b37:0xa98e8e61eb751219!8m2!3d26.1149982!4d91.1884234?authuser=0&hl=en&rclk=1,26.1149982,91.1884234,Assam,East
Sasoria Hospital,Private hospital,"2no.mullapatti, Nagaon, Assam 782002, India",https://www.google.co.kr/maps/place/Sasoria+Hospital/data=!4m5!3m4!1s0x37452702c5d8afb7:0x885c5d832d4611b1!8m2!3d26.3492976!4d92.6678538?authuser=0&hl=en&rclk=1,26.3492976,92.6678538,Assam,East
AEC Hospital,Hospital,"Gauhati University, Jalukbari, Guwahati, Assam 781012, India",https://www.google.co.kr/maps/place/AEC+Hospital/data=!4m5!3m4!1s0x375a44ba4e29bb39:0x536750fba364c58f!8m2!3d26.1418971!4d91.6643536?authuser=0&hl=en&rclk=1,26.1418971,91.6643536,Assam,East
AJ Hospital,Hospital,"MD Rd, Morikolong, Nagaon, Assam 782001, India",https://www.google.co.kr/maps/place/AJ+Hospital/data=!4m5!3m4!1s0x374526d7fba8aa61:0x70133740e5d1478a!8m2!3d26.3457475!4d92.6928909?authuser=0&hl=en&rclk=1,26.3457475,92.6928909,Assam,East
নেমকেয়াৰ চুপাৰ স্পেচেলিটি হাস্পতাল,Hospital,"GMC Hospital Rd, Bhangagarh, Guwahati, Assam 781005, India",https://www.google.co.kr/maps/place/%E0%A6%A8%E0%A7%87%E0%A6%AE%E0%A6%95%E0%A7%87%E0%A7%9F%E0%A6%BE%E0%A7%B0+%E0%A6%9A%E0%A7%81%E0%A6%AA%E0%A6%BE%E0%A7%B0+%E0%A6%B8%E0%A7%8D%E0%A6%AA%E0%A7%87%E0%A6%9A%E0%A7%87%E0%A6%B2%E0%A6%BF%E0%A6%9F%E0%A6%BF+%E0%A6%B9%E0%A6%BE%E0%A6%B8%E0%A7%8D%E0%A6%AA%E0%A6%A4%E0%A6%BE%E0%A6%B2/data=!4m5!3m4!1s0x375a5973cfd6f78f:0x814e2535ffd54a1b!8m2!3d26.1640687!4d91.7689242?authuser=0&hl=en&rclk=1,26.1640687,91.7689242,Assam,East
B-J Hospital,Hospital,"Mission Chariali, Ketekibari, Tezpur, Assam 784001, India",https://www.google.co.kr/maps/place/B-J+Hospital/data=!4m5!3m4!1s0x3744c3dfbd684761:0x8c10f12423d1da1b!8m2!3d26.6594722!4d92.7713901?authuser=0&hl=en&rclk=1,26.6594722,92.7713901,Assam,East
TIMeS Hospital,Hospital,"Old N.T. Road, Deurigaon Opposite NRL Petrol Pump, Mission Chariali, Ketekibari, Tezpur, Assam 784001, India",https://www.google.co.kr/maps/place/TIMeS+Hospital/data=!4m5!3m4!1s0x3744c274b5d21cbd:0xa257825dfd5030fd!8m2!3d26.6505151!4d92.774431?authuser=0&hl=en&rclk=1,26.6505151,92.774431,Assam,East
Bokajan PHC,Hospital,"NH129, Bokajan, Assam 782490, India",https://www.google.co.kr/maps/place/Bokajan+PHC/data=!4m5!3m4!1s0x3746756adffad365:0x55435cd46c014e95!8m2!3d26.0191704!4d93.7625867?authuser=0&hl=en&rclk=1,26.0191704,93.7625867,Assam,East
New Assam Medical Hall,Medical Center,"2V22+8JQ, Hojai, Assam 782435, India",https://www.google.co.kr/maps/place/New+Assam+Medical+Hall/data=!4m5!3m4!1s0x37456b5a1282adb5:0xde4bf61f33967c9f!8m2!3d26.0008439!4d92.8515945?authuser=0&hl=en&rclk=1,26.0008439,92.8515945,Assam,East
Super Speciality Hospital Guwahati,Hospital,"5Q68+MF2, Birubari, Guwahati, Assam 781007, India",https://www.google.co.kr/maps/place/Super+Speciality+Hospital+Guwahati/data=!4m5!3m4!1s0x375a59d292f15947:0x50da85ad8bef67ca!8m2!3d26.161643!4d91.7661488?authuser=0&hl=en&rclk=1,26.161643,91.7661488,Assam,East
Asian Hospital,Hospital,"Unnamed Road, Beharbari, Lalmati, Guwahati, Assam 781029, India",https://www.google.co.kr/maps/place/Asian+Hospital/data=!4m5!3m4!1s0x375a5ec7a2f85cf9:0xeaa16a4ee383a0ed!8m2!3d26.1108552!4d91.7747442?authuser=0&hl=en&rclk=1,26.1108552,91.7747442,Assam,East
M/S SUHANA MEDICAL,Medical Center,"College Rd, Doboka Town, Assam 782440, India",https://www.google.co.kr/maps/place/M%2FS+SUHANA+MEDICAL/data=!4m5!3m4!1s0x374516acac725099:0x4c66e8f215dfa088!8m2!3d26.1140428!4d92.8575071?authuser=0&hl=en&rclk=1,26.1140428,92.8575071,Assam,East
Sultan Hospital,Hospital,"Telahi - Morigaon Rd, Mikirgaon, Assam 782105, India",https://www.google.co.kr/maps/place/Sultan+Hospital/data=!4m5!3m4!1s0x375ad1b671e47671:0xaed416cbce1bbfca!8m2!3d26.2368589!4d92.3482557?authuser=0&hl=en&rclk=1,26.2368589,92.3482557,Assam,East
Juria Primary Health Centre,Hospital,"CJRV+62V, Telia Bebejia, Assam 782124, India",https://www.google.co.kr/maps/place/Juria+Primary+Health+Centre/data=!4m5!3m4!1s0x3744d84b6b2888b5:0xf32bc1e6e953e7ed!8m2!3d26.4406129!4d92.6425388?authuser=0&hl=en&rclk=1,26.4406129,92.6425388,Assam,East
GNRC Hospital Six-Mile Branch,Private hospital,"GS Road Sixmile, Jaya Nagar, turning, Guwahati, Assam 781022, India",https://www.google.co.kr/maps/place/GNRC+Hospital+Six-Mile+Branch/data=!4m5!3m4!1s0x375a58c95177d003:0xf12b951708b709f!8m2!3d26.1311264!4d91.8078004?authuser=0&hl=en&rclk=1,26.1311264,91.8078004,Assam,East
Pratiksha,Hospital,"5R45+RXR, Milan Nagar, Borbari, Guwahati, Assam 781171, India",https://www.google.co.kr/maps/place/Pratiksha/data=!4m5!3m4!1s0x375a5946ee4b61df:0x3c6b06a0cb365a6c!8m2!3d26.1571231!4d91.8098954?authuser=0&hl=en&rclk=1,26.1571231,91.8098954,Assam,East
SILDUBI MINI PHC,Hospital,"WR7J+67F, Sildubi, Assam 782448, India",https://www.google.co.kr/maps/place/SILDUBI+MINI+PHC/data=!4m5!3m4!1s0x3745696479436f33:0x20e7f3c42da66337!8m2!3d25.9130643!4d92.8306612?authuser=0&hl=en&rclk=1,25.9130643,92.8306612,Assam,East
Hospital,Hospital,"7H6M+W8H, Phulaguri, Assam 782103, India",https://www.google.co.kr/maps/place/Hospital/data=!4m5!3m4!1s0x37452f0393de9367:0x10bbb421336090f7!8m2!3d26.2623051!4d92.5833667?authuser=0&hl=en&rclk=1,26.2623051,92.5833667,Assam,East
Rongmandu Hospital,Hospital,"RGW5+MVV, Langteng Rongphar, Assam 782486, India",https://www.google.co.kr/maps/place/Rongmandu+Hospital/data=!4m5!3m4!1s0x37454d88733cae53:0x5371909c108178a2!8m2!3d25.8467447!4d92.5096833?authuser=0&hl=en&rclk=1,25.8467447,92.5096833,Assam,East
"Dispensary, Nowgong Polytechnic",Hospital,"9P44+6W5, Panigaon, Nagaon, Assam 782001, India","https://www.google.co.kr/maps/place/Dispensary,+Nowgong+Polytechnic/data=!4m5!3m4!1s0x374520d08a11a7c7:0xc2e18e37eb82f787!8m2!3d26.3555055!4d92.7073453?authuser=0&hl=en&rclk=1",26.3555055,92.7073453,Assam,East
Bakola Dhlaibill,Hospital,"hospital, India",https://www.google.co.kr/maps/place/Bakola+Dhlaibill/data=!4m5!3m4!1s0x374511540b4603cb:0x3acd67234e226e27!8m2!3d26.1132903!4d92.8614907?authuser=0&hl=en&rclk=1,26.1132903,92.8614907,Assam,East
New Land HAAM HOSPITAL DR RESIDENCE,Hospital,"2V9C+8H5, Pub - Dhaniram Pather, Assam 782435, India",https://www.google.co.kr/maps/place/New+Land+HAAM+HOSPITAL+DR+RESIDENCE/data=!4m5!3m4!1s0x3745134c18136e65:0x387d9518ef35776e!8m2!3d26.0182575!4d92.8714824?authuser=0&hl=en&rclk=1,26.0182575,92.8714824,Assam,East
Awhaq Hospital,Hospital,"FC3Q+7CJ, Niz-Dhing, Assam 782123, India",https://www.google.co.kr/maps/place/Awhaq+Hospital/data=!4m5!3m4!1s0x375b2b18ddee20bd:0xed10fc3a835a0ff9!8m2!3d26.4532187!4d92.4385283?authuser=0&hl=en&rclk=1,26.4532187,92.4385283,Assam,East
Kondoli Hospital,Hospital,"5QW6+Q4J, Sagunbahi, Assam 782126, India",https://www.google.co.kr/maps/place/Kondoli+Hospital/data=!4m5!3m4!1s0x37453dd89e7dc4e3:0x1823f7648bc51ce0!8m2!3d26.1969718!4d92.760257?authuser=0&hl=en&rclk=1,26.1969718,92.760257,Assam,East
Karimganj Civil Hospital,Government hospital,"Hospital Rd, Karimganj, Assam 788710, India",https://www.google.co.kr/maps/place/Karimganj+Civil+Hospital/data=!4m5!3m4!1s0x3751d3474c8e60ad:0xa1ff0c9bb10cc897!8m2!3d24.8679702!4d92.3624938?authuser=0&hl=en&rclk=1,24.8679702,92.3624938,Assam,East
Sub Center,Hospital,"3GJ3+VXX, Chayani Rangamati, Assam 781122, India",https://www.google.co.kr/maps/place/Sub+Center/data=!4m5!3m4!1s0x375a3f756ae3063f:0x3d2335754f70c5f2!8m2!3d26.0822431!4d91.5049935?authuser=0&hl=en&rclk=1,26.0822431,91.5049935,Assam,East
Hanlokrok PHC,Hospital,"2MCX+2V5, Nagaon, Assam 782426, India",https://www.google.co.kr/maps/place/Hanlokrok+PHC/data=!4m5!3m4!1s0x37453f54e87702cb:0x98073e1bbac6beb0!8m2!3d26.0200053!4d92.6997366?authuser=0&hl=en&rclk=1,26.0200053,92.6997366,Assam,East
Hostpital,Hospital,"Unnamed Road, Near Hayat Hospital, Odalbakra, Lal Ganesh, Guwahati, Assam 781034, India",https://www.google.co.kr/maps/place/Hostpital/data=!4m5!3m4!1s0x375a5be51d8f4ffb:0xd36538097a58ecbd!8m2!3d26.1391927!4d91.7466403?authuser=0&hl=en&rclk=1,26.1391927,91.7466403,Assam,East
Advance Neuro Science Hospital,Hospital,"Kahilipara Main Rd, Odalbakra, Lal Ganesh, Guwahati, Assam 781006, India",https://www.google.co.kr/maps/place/Advance+Neuro+Science+Hospital/data=!4m5!3m4!1s0x375a5be599b4a249:0x19877a28035ea959!8m2!3d26.1408234!4d91.7452078?authuser=0&hl=en&rclk=1,26.1408234,91.7452078,Assam,East
Hospital,Hospital,"Lawphulabari, Assam 782103, India",https://www.google.co.kr/maps/place/Hospital/data=!4m5!3m4!1s0x374532a65f725dfd:0x982c0a2eee6b5824!8m2!3d26.205104!4d92.4727124?authuser=0&hl=en&rclk=1,26.205104,92.4727124,Assam,East
Hospital,Children's hospital,"VV5F+68F, Nanaikhuti, Assam 784523, India",https://www.google.co.kr/maps/place/Hospital/data=!4m5!3m4!1s0x375b75ba3314c487:0x71a0e324b655e2a5!8m2!3d26.8580736!4d91.8733017?authuser=0&hl=en&rclk=1,26.8580736,91.8733017,Assam,East
Hospital,Hospital,"Kempo, Bamunigaon, Chhaygaon, Assam 781141, India",https://www.google.co.kr/maps/place/Hospital/data=!4m5!3m4!1s0x375a198fc0038cb9:0x3fcbc51db4bceb40!8m2!3d26.0108188!4d91.2999903?authuser=0&hl=en&rclk=1,26.0108188,91.2999903,Assam,East
Hospital,Hospital,"GC4G+VRV, Kachimpur, Assam 781340, India",https://www.google.co.kr/maps/place/Hospital/data=!4m5!3m4!1s0x375bcfea319082d7:0x5d5c4e3cf1ee97b!8m2!3d26.5072448!4d91.4270502?authuser=0&hl=en&rclk=1,26.5072448,91.4270502,Assam,East
RIO,Hospital,"5Q69+4PV, Bhangagarh, Guwahati, Assam 781006, India",https://www.google.co.kr/maps/place/RIO/data=!4m5!3m4!1s0x375a5990bd9f4267:0x293e30bba358adc!8m2!3d26.1603592!4d91.7693068?authuser=0&hl=en&rclk=1,26.1603592,91.7693068,Assam,East
Hospital,Hospital,"GRX3+QRG, Goremari No.1, Assam 783391, India",https://www.google.co.kr/maps/place/Hospital/data=!4m5!3m4!1s0x37590ef199225ad1:0x317938af404cb61d!8m2!3d26.5494268!4d90.8045822?authuser=0&hl=en&rclk=1,26.5494268,90.8045822,Assam,East
Bharat Sewa Ashram Hospital,Hospital,"Jyotikuchi Rd, Adarsha Colony, Lokhra, Guwahati, Assam 781034, India",https://www.google.co.kr/maps/place/Bharat+Sewa+Ashram+Hospital/data=!4m5!3m4!1s0x375a5bf45f2b125d:0x73c21d999dc6a72b!8m2!3d26.1295692!4d91.7369817?authuser=0&hl=en&rclk=1,26.1295692,91.7369817,Assam,East
Hospital,Hospital,"Chandamari Bangali, Assam 784179, India",https://www.google.co.kr/maps/place/Hospital/data=!4m5!3m4!1s0x374413dc003c824f:0xb2f1ced06ef45494!8m2!3d26.8861265!4d93.4442082?authuser=0&hl=en&rclk=1,26.8861265,93.4442082,Assam,East
Lanka PHC,Hospital,"Railway Station Rd, Lanka, Assam 782446, India",https://www.google.co.kr/maps/place/Lanka+PHC/data=!4m5!3m4!1s0x3745721fd2bd5555:0x860a00ee1ef21313!8m2!3d25.9175081!4d92.9551399?authuser=0&hl=en&rclk=1,25.9175081,92.9551399,Assam,East
🏥 Hospital,Hospital,"M96P+H2V, Chinotali Gaon, Assam 785635, India",https://www.google.co.kr/maps/place/%F0%9F%8F%A5+Hospital/data=!4m5!3m4!1s0x3746e1c2fe68fc17:0xbeb6368881ac5ea8!8m2!3d26.6614764!4d94.3850339?authuser=0&hl=en&rclk=1,26.6614764,94.3850339,Assam,East
Ashabul Islam,Hospital,"Nagaon, Rupahi, Assam 782125, India",https://www.google.co.kr/maps/place/Ashabul+Islam/data=!4m5!3m4!1s0x3744dfc29c61f4e9:0x836261f2e9d2ea!8m2!3d26.413074!4d92.7421469?authuser=0&hl=en&rclk=1,26.413074,92.7421469,Assam,East
Hospital,Hospital,"WWM2+HJ9, Chandighat Grant, Assam 788030, India",https://www.google.co.kr/maps/place/Hospital/data=!4m5!3m4!1s0x374fb35879a9736d:0xa247991aaecc86a6!8m2!3d24.9339249!4d92.9016238?authuser=0&hl=en&rclk=1,24.9339249,92.9016238,Assam,East
International Hospital,Hospital,"Bagari N.C., Assam 785609, India",https://www.google.co.kr/maps/place/International+Hospital/data=!4m5!3m4!1s0x374445e5b2bed0a1:0x4321f105e27116a9!8m2!3d26.584924!4d93.331275?authuser=0&hl=en&rclk=1,26.584924,93.331275,Assam,East
Hospital,Hospital,"CJHH+7H9, Makhuli, Assam 781354, India",https://www.google.co.kr/maps/place/Hospital/data=!4m5!3m4!1s0x375bb323614447f5:0x9c3fb5ff71c676a3!8m2!3d26.4281696!4d91.6289716?authuser=0&hl=en&rclk=1,26.4281696,91.6289716,Assam,East
Hospital,Hospital,"GR35+359, Patiladaha, Assam 783391, India",https://www.google.co.kr/maps/place/Hospital/data=!4m5!3m4!1s0x375909791323b3a1:0xca1c523f4ec909b0!8m2!3d26.5026721!4d90.8079772?authuser=0&hl=en&rclk=1,26.5026721,90.8079772,Assam,East
Hospital,Hospital,"Q6MH+PG8, Lowai Amsih, Assam 782486, India",https://www.google.co.kr/maps/place/Hospital/data=!4m5!3m4!1s0x375aa58dbdc5b3c1:0xe9aedba1460ed088!8m2!3d25.7842857!4d92.2288201?authuser=0&hl=en&rclk=1,25.7842857,92.2288201,Assam,East
Hospital,Hospital,"RVVH+WFW, Nonaipara Basti, Assam, India",https://www.google.co.kr/maps/place/Hospital/data=!4m5!3m4!1s0x375b744fb7be4975:0xfe8d454844cb74a3!8m2!3d26.844859!4d91.8787114?authuser=0&hl=en&rclk=1,26.844859,91.8787114,Assam,East
Dekorai hospital Line,Hospital,"Tengabasti, Assam 784182, India",https://www.google.co.kr/maps/place/Dekorai+hospital+Line/data=!4m5!3m4!1s0x37448da75dab90a9:0x1ff7535b0ae1e46e!8m2!3d26.8135642!4d92.9636643?authuser=0&hl=en&rclk=1,26.8135642,92.9636643,Assam,East
NL Hospital,Hospital,"49, Sarvodaya Path, Bhangagarh, Guwahati, Assam 781006, India",https://www.google.co.kr/maps/place/NL+Hospital/data=!4m5!3m4!1s0x375a597289a82bab:0x8dd124174d94d86e!8m2!3d26.1615267!4d91.7709598?authuser=0&hl=en&rclk=1,26.1615267,91.7709598,Assam,East
HOSPITAL,Hospital,"H243+J8M, Silkhurung, Assam 782136, India",https://www.google.co.kr/maps/place/HOSPITAL/data=!4m5!3m4!1s0x3744fb082175b42b:0xb4560439e73fdf89!8m2!3d26.5565845!4d93.003303?authuser=0&hl=en&rclk=1,26.5565845,93.003303,Assam,East
Government Hospital,Hospital,"7G3R+3MR, Hajo, Assam 781104, India",https://www.google.co.kr/maps/place/Government+Hospital/data=!4m5!3m4!1s0x375a49c4139eef8d:0xa7c3434c151c32a9!8m2!3d26.2527279!4d91.5416362?authuser=0&hl=en&rclk=1,26.2527279,91.5416362,Assam,East
Hospital,Hospital,"538V+5QF, Shilpukhuri Gaon, Assam 782481, India",https://www.google.co.kr/maps/place/Hospital/data=!4m5!3m4!1s0x3745097eb02dfec3:0xdc946b342c361644!8m2!3d26.1654363!4d93.094411?authuser=0&hl=en&rclk=1,26.1654363,93.094411,Assam,East
Bikrampur BPHC,Hospital,"P.O. Sonapur part 1, Assam 788817, India",https://www.google.co.kr/maps/place/Bikrampur+BPHC/data=!4m5!3m4!1s0x374fcc51ca19c991:0xd883f1144051062e!8m2!3d24.938421!4d92.665814?authuser=0&hl=en&rclk=1,24.938421,92.665814,Assam,East
GNRC Good Health Hospital,Hospital,"Bormotoria, Guwahati, Assam 781006, India",https://www.google.co.kr/maps/place/GNRC+Good+Health+Hospital/data=!4m5!3m4!1s0x375a59d4c3b926fd:0xf0c8ba037b7c7ca3!8m2!3d26.1406644!4d91.796802?authuser=0&hl=en&rclk=1,26.1406644,91.796802,Assam,East
Hospital,Hospital,"4G47+M49, Lawpani, Assam 782450, India",https://www.google.co.kr/maps/place/Hospital/data=!4m5!3m4!1s0x37453471185c2a97:0xe70f6df2fb02f902!8m2!3d26.1066655!4d92.5128503?authuser=0&hl=en&rclk=1,26.1066655,92.5128503,Assam,East
Bebejia CHC,Hospital,"Birah Bebejia, Assam 782142, India",https://www.google.co.kr/maps/place/Bebejia+CHC/data=!4m5!3m4!1s0x3745260d506a1fa3:0x2229787ad58587b3!8m2!3d26.311978!4d92.638232?authuser=0&hl=en&rclk=1,26.311978,92.638232,Assam,East
HOSPITAL,Hospital,"BANDHU CHA BAGAN, Assam, India",https://www.google.co.kr/maps/place/HOSPITAL/data=!4m5!3m4!1s0x374fad408ddc08b7:0xb7bc9a424670fc2a!8m2!3d24.9000771!4d92.9905712?authuser=0&hl=en&rclk=1,24.9000771,92.9905712,Assam,East
Prymers,Hospital,"5Q7C+X2G, SATSANG VIHAR, Bhangagarh, Guwahati, Assam 781006, India",https://www.google.co.kr/maps/place/Prymers/data=!4m5!3m4!1s0x375a5973bdec679f:0xf64908a137048a27!8m2!3d26.1649342!4d91.7700735?authuser=0&hl=en&rclk=1,26.1649342,91.7700735,Assam,East
Hospital,Hospital,"Rong Hang, Assam 782136, India",https://www.google.co.kr/maps/place/Hospital/data=!4m5!3m4!1s0x3744fb1a4a511fc9:0x92031e3c9f665fb0!8m2!3d26.5305858!4d93.0107303?authuser=0&hl=en&rclk=1,26.5305858,93.0107303,Assam,East
Hospital,Hospital,"WFF7+7FW, Boroi T.E. 259/437 Grant, Assam 784171, India",https://www.google.co.kr/maps/place/Hospital/data=!4m5!3m4!1s0x3744126117d59a35:0x1644b15c0f33d2e5!8m2!3d26.9232274!4d93.4637165?authuser=0&hl=en&rclk=1,26.9232274,93.4637165,Assam,East
Ayursurgence hospital,Hospital,"5QF4+RWV, South Sarania, Manipuri Rajbari, Ulubari, Guwahati, Assam 781007, India",https://www.google.co.kr/maps/place/Ayursurgence+hospital/data=!4m5!3m4!1s0x375a59ccd46470fb:0x7f0b43311ce402b8!8m2!3d26.1746114!4d91.7572891?authuser=0&hl=en&rclk=1,26.1746114,91.7572891,Assam,East
GNRC Dispur,Hospital,"15, Kalpataru Path, near GNRC Hospital, Dispur, Rukmini Gaon, Guwahati, Assam 781006, India",https://www.google.co.kr/maps/place/GNRC+Dispur/data=!4m5!3m4!1s0x375a596d9f8f627b:0xab1cf6d683a28de!8m2!3d26.1389556!4d91.7944378?authuser=0&hl=en&rclk=1,26.1389556,91.7944378,Assam,East
Sockieting Hospital,Hospital,"H33X+Q7J, Chokiting No.2, Assam 785625, India",https://www.google.co.kr/maps/place/Sockieting+Hospital/data=!4m5!3m4!1s0x3746ed3628ad4ad3:0x3d5be47c93400f38!8m2!3d26.5544528!4d94.0981488?authuser=0&hl=en&rclk=1,26.5544528,94.0981488,Assam,East
Lifeline Medical,Medical Center,"Natun Bazar, Hospital Road, 782435n, Hojai, Assam, India",https://www.google.co.kr/maps/place/Lifeline+Medical/data=!4m5!3m4!1s0x37456b5aaa27a11d:0x113ab1390f3a1882!8m2!3d26.0015265!4d92.848043?authuser=0&hl=en&rclk=1,26.0015265,92.848043,Assam,East
HOSPITAL,Hospital,"RHPX+J87, Golchepa Miri Pathar, Assam 784168, India",https://www.google.co.kr/maps/place/HOSPITAL/data=!4m5!3m4!1s0x374419f24d6ae42f:0x916d6d56109cb0b6!8m2!3d26.836527!4d93.598283?authuser=0&hl=en&rclk=1,26.836527,93.598283,Assam,East
Nisa Mukti Kendra,Hospital,"Haibargaon, Fauzdaripatty, Nagaon, Assam 782003, India",https://www.google.co.kr/maps/place/Nisa+Mukti+Kendra/data=!4m5!3m4!1s0x37452720961d4279:0xb9608affa59511be!8m2!3d26.3482388!4d92.6822325?authuser=0&hl=en&rclk=1,26.3482388,92.6822325,Assam,East
Hospital,Government hospital,"7F6G+H4H, Kachadhara Bill, Assam 782413, India",https://www.google.co.kr/maps/place/Hospital/data=!4m5!3m4!1s0x37452d19e52626a3:0x2e3ef2df645aa365!8m2!3d26.2614499!4d92.4753525?authuser=0&hl=en&rclk=1,26.2614499,92.4753525,Assam,East
Dhupaguri Civil Hospital NSAP,Hospital,"Dhupaguri, Nagaon, SH-47, Nagaon, Nagaon, Assam 782123, India",https://www.google.co.kr/maps/place/Dhupaguri+Civil+Hospital+NSAP/data=!4m5!3m4!1s0x3744d5b19e0d95b3:0xd43cc7a0aa2e6ec1!8m2!3d26.437578!4d92.512303?authuser=0&hl=en&rclk=1,26.437578,92.512303,Assam,East
Adinggri government hospital,Hospital,"East Gota Nagar, Maligaon, Guwahati, Assam 781011, India",https://www.google.co.kr/maps/place/Adinggri+government+hospital/data=!4m5!3m4!1s0x375a5beb6ff9c4b1:0xe10246b2313c8dc5!8m2!3d26.1526103!4d91.7107438?authuser=0&hl=en&rclk=1,26.1526103,91.7107438,Assam,East
Public Hospital,Hospital,"CF34+R6P, Bechamari, Assam 782126, India",https://www.google.co.kr/maps/place/Public+Hospital/data=!4m5!3m4!1s0x375b2bf8ba207c25:0x816b4d6ec8147dab!8m2!3d26.4045829!4d92.4555781?authuser=0&hl=en&rclk=1,26.4045829,92.4555781,Assam,East
Appolo hospital New building,Hospital,"Shiva Mandir Path, Sundarpur, Guwahati, Assam 781006, India",https://www.google.co.kr/maps/place/Appolo+hospital+New+building/data=!4m5!3m4!1s0x375a59e49eff09f5:0x6a6bc6203b2bda15!8m2!3d26.1613484!4d91.7817274?authuser=0&hl=en&rclk=1,26.1613484,91.7817274,Assam,East
Astha Medicos,Medical clinic,"ADP Rd, Christianpatty, Nagaon, Assam 782001, India",https://www.google.co.kr/maps/place/Astha+Medicos/data=!4m5!3m4!1s0x374527287305f171:0xb03af3d9df29fc92!8m2!3d26.346082!4d92.690153?authuser=0&hl=en&rclk=1,26.346082,92.690153,Assam,East
Medident,Hospital,"Dhing Rd, Haibargaon, Nagaon, Assam 782002, India",https://www.google.co.kr/maps/place/Medident/data=!4m5!3m4!1s0x3745270dea53b6ed:0xd06525a67c4663ef!8m2!3d26.3578744!4d92.6645163?authuser=0&hl=en&rclk=1,26.3578744,92.6645163,Assam,East
Dr. Palash Hazarika,Pediatrician,"Assam Trunk Rd, Kachali Number 2, Panigaon, Nagaon, Assam 782001, India",https://www.google.co.kr/maps/place/Dr.+Palash+Hazarika/data=!4m5!3m4!1s0x374521a8e86479d7:0x15d9cad8d719362a!8m2!3d26.3530894!4d92.7023842?authuser=0&hl=en&rclk=1,26.3530894,92.7023842,Assam,East
Saudarvitha Mini P.H.C,Government hospital,"Sarupeta Road, Saudarvitha, Assam 781318, India",https://www.google.co.kr/maps/place/Saudarvitha+Mini+P.H.C/data=!4m5!3m4!1s0x37597bdf84d8ad79:0x64b8d1115a570f71!8m2!3d26.583166!4d91.0978758?authuser=0&hl=en&rclk=1,26.583166,91.0978758,Assam,East
D k daimary clinic,Hospital,"JRJ4+75C, Mahabhairab, Tezpur, Assam 784001, India",https://www.google.co.kr/maps/place/D+k+daimary+clinic/data=!4m5!3m4!1s0x3744e9b255555555:0x1d5b7695ba3f5b7b!8m2!3d26.6306892!4d92.8053772?authuser=0&hl=en&rclk=1,26.6306892,92.8053772,Assam,East
Government Hospital,Hospital,"73JV+J9H, Pabhakati, Assam 782411, India",https://www.google.co.kr/maps/place/Government+Hospital/data=!4m5!3m4!1s0x375ae7be59dcc1c7:0x4d8ed1d71f1086de!8m2!3d26.2815565!4d92.0934715?authuser=0&hl=en&rclk=1,26.2815565,92.0934715,Assam,East
Sausaria Nursing Home,Nursing home,"Haiborgaon, Haibargaon, Nagaon, Assam 782002, India",https://www.google.co.kr/maps/place/Sausaria+Nursing+Home/data=!4m5!3m4!1s0x37452702c0432173:0xcbc5ec68997e049d!8m2!3d26.3490389!4d92.6674441?authuser=0&hl=en&rclk=1,26.3490389,92.6674441,Assam,East
medical facility,Hospital,"3GRP+2CX, Mirza, Assam 781015, India",https://www.google.co.kr/maps/place/medical+facility/data=!4m5!3m4!1s0x375a41dc5955e287:0xb3052b8bf8e93cd4!8m2!3d26.090116!4d91.5361014?authuser=0&hl=en&rclk=1,26.090116,91.5361014,Assam,East
"Primary Health Center (PHC), Sualkuchi",Hospital,"Unnamed Road, Noh-Para, Saualkuchi, Assam 781103, India","https://www.google.co.kr/maps/place/Primary+Health+Center+(PHC),+Sualkuchi/data=!4m5!3m4!1s0x375a474fe763a21f:0xfe7c41edb9aec71b!8m2!3d26.1754038!4d91.5681759?authuser=0&hl=en&rclk=1",26.1754038,91.5681759,Assam,East
IRL,Hospital,"4QJ6+QR9, DakhinGaon, Kahilipara, Guwahati, Assam 781019, India",https://www.google.co.kr/maps/place/IRL/data=!4m5!3m4!1s0x375a59519204d0d3:0x443afe305632d00!8m2!3d26.1319161!4d91.7621239?authuser=0&hl=en&rclk=1,26.1319161,91.7621239,Assam,East
Hospital,Hospital,"RQ76+663, Patgaon T.E., Assam 784101, India",https://www.google.co.kr/maps/place/Hospital/data=!4m5!3m4!1s0x3744bfca4b4ea20d:0xf0411db0e0c38775!8m2!3d26.8130094!4d92.7605376?authuser=0&hl=en&rclk=1,26.8130094,92.7605376,Assam,East
Catholic Health Centre (Hospital),Hospital,"P.H.E. Colony, Diphu, Assam 784167, India",https://www.google.co.kr/maps/place/Catholic+Health+Centre+(Hospital)/data=!4m5!3m4!1s0x3745ed3aa63e69a7:0x927c645ebdca9ad7!8m2!3d25.846525!4d93.4298746?authuser=0&hl=en&rclk=1,25.846525,93.4298746,Assam,East
GMCH Main Building,Hospital,"5Q69+26W, Bhangagarh, Guwahati, Assam 781006, India",https://www.google.co.kr/maps/place/GMCH+Main+Building/data=!4m5!3m4!1s0x375a594c1bc0abbb:0x511f7cb3e9f687a6!8m2!3d26.1601129!4d91.7680712?authuser=0&hl=en&rclk=1,26.1601129,91.7680712,Assam,East
E.g. Nursing Home (P) Ltd.,Hospital,"5V56+QCH, Guwahati, Assam 781026, India",https://www.google.co.kr/maps/place/E.g.+Nursing+Home+(P)+Ltd./data=!4m5!3m4!1s0x375af65aaaaaaaab:0xa8e2a7b090787fb8!8m2!3d26.1594267!4d91.8611011?authuser=0&hl=en&rclk=1,26.1594267,91.8611011,Assam,East
Hosbetel,Hospital,"VM8P+PVG, Algapur, Assam 788025, India",https://www.google.co.kr/maps/place/Hosbetel/data=!4m5!3m4!1s0x374e33a220c441b5:0xdf705b5a9e43980b!8m2!3d24.8668104!4d92.6872046?authuser=0&hl=en&rclk=1,24.8668104,92.6872046,Assam,East
NH Narayana Super Speciality Hospital,Hospital,"Amingaon, Guwahati, Assam 781031, India",https://www.google.co.kr/maps/place/NH+Narayana+Super+Speciality+Hospital/data=!4m5!3m4!1s0x375a458e09260729:0x66a925df0e931ffc!8m2!3d26.183903!4d91.6640242?authuser=0&hl=en&rclk=1,26.183903,91.6640242,Assam,East
Dispur Hospital,Surgeon,"Manik Nagar, Guwahati, Assam 781006, India",https://www.google.co.kr/maps/place/Dispur+Hospital/data=!4m5!3m4!1s0x375a591a13d9a04b:0xd20edc5b7684a038!8m2!3d26.155617!4d91.7839054?authuser=0&hl=en&rclk=1,26.155617,91.7839054,Assam,East
"Amdah Mini PHC, Hospital",Hospital,"Amdah, Assam 781325, India","https://www.google.co.kr/maps/place/Amdah+Mini+PHC,+Hospital/data=!4m5!3m4!1s0x37597f29aa090ce9:0xff679a464e4bda87!8m2!3d26.4591184!4d91.1422502?authuser=0&hl=en&rclk=1",26.4591184,91.1422502,Assam,East
Andherighat Mini PHC,Hospital,"GQ4M+3QW, Simlibari, Assam 784522, India",https://www.google.co.kr/maps/place/Andherighat+Mini+PHC/data=!4m5!3m4!1s0x375ba97d18d0c6b7:0xf039de297728aa36!8m2!3d26.505237!4d91.7844448?authuser=0&hl=en&rclk=1,26.505237,91.7844448,Assam,East
Umrongso C.H.C,Hospital,"Umrangso, Assam 788931, India",https://www.google.co.kr/maps/place/Umrongso+C.H.C/data=!4m5!3m4!1s0x374ff3a5dffa2d87:0x4256f7c48de7e7b!8m2!3d25.5052335!4d92.7329802?authuser=0&hl=en&rclk=1,25.5052335,92.7329802,Assam,East
Ketekijhar Sub Health Center,Hospital,"6M33+QH6, Ketekijhar, Assam 781104, India",https://www.google.co.kr/maps/place/Ketekijhar+Sub+Health+Center/data=!4m5!3m4!1s0x375a456973ff358d:0xfdbb89f98ec68171!8m2!3d26.2044118!4d91.653901?authuser=0&hl=en&rclk=1,26.2044118,91.653901,Assam,East
Wintrobe Hospital,Hospital,"5QP3+2QW, Guwahati, Assam 781001, India",https://www.google.co.kr/maps/place/Wintrobe+Hospital/data=!4m5!3m4!1s0x375a59880553ec4b:0xb90dc30fae2366c0!8m2!3d26.1851013!4d91.7544681?authuser=0&hl=en&rclk=1,26.1851013,91.7544681,Assam,East
"Dr Nripen Saikia, Best Gastroenterologist in Guwahati, Digestive Disease, Liver Specialist, Gastro Doctor",Gastroenterologist,"Matrix Diagnostic Centre, Nexia Park, Opp Sant John's Hospital, Christian Basti, Guwahati, Assam 781006, India","https://www.google.co.kr/maps/place/Dr+Nripen+Saikia,+Best+Gastroenterologist+in+Guwahati,+Digestive+Disease,+Liver+Specialist,+Gastro+Doctor/data=!4m5!3m4!1s0x375a5913d37be13b:0x9463780b07b8be1e!8m2!3d26.1573594!4d91.7778993?authuser=0&hl=en&rclk=1",26.1573594,91.7778993,Assam,East
DR MOHIBUL ISLAM,Surgeon,"ADITYA TOWER, MEDICITY GUWAHATI ADITYA, GS Rd, opp. Down Town Hospital, Guwahati, Assam 781006, India",https://www.google.co.kr/maps/place/DR+MOHIBUL+ISLAM/data=!4m5!3m4!1s0x375a5999fb6d30bb:0x7906383c8cbf454b!8m2!3d26.1386752!4d91.798445?authuser=0&hl=en&rclk=1,26.1386752,91.798445,Assam,East
Primary Health Centre under NRHM,Hospital,"5PV9+4R7, Abhaypur, Guwahati, Assam 781030, India",https://www.google.co.kr/maps/place/Primary+Health+Centre+under+NRHM/data=!4m5!3m4!1s0x375a5a5e9c8531f5:0xe068b2bef66207f5!8m2!3d26.1927808!4d91.7195487?authuser=0&hl=en&rclk=1,26.1927808,91.7195487,Assam,East
"DR AMITABH SARMAH, Liver Specialist, Best Gastroenterologist in Guwahati,Liver Specialist",Gastroenterologist,"Medicity Guwahati,Dispur Hatigaon main road, opposite Sankar path,, Near Sewali Path, Hatigaon, Guwahati, Assam 781006, India","https://www.google.co.kr/maps/place/DR+AMITABH+SARMAH,+Liver+Specialist,+Best+Gastroenterologist+in+Guwahati,Liver+Specialist/data=!4m5!3m4!1s0x375a592f7b9a2657:0x7db0b4a2d12f7c6c!8m2!3d26.13644!4d91.785808?authuser=0&hl=en&rclk=1",26.13644,91.785808,Assam,East
Aec Hospital (1),Hospital,"4MR7+VMC, Jalukbari, Guwahati, Assam 781012, India",https://www.google.co.kr/maps/place/Aec+Hospital+(1)/data=!4m5!3m4!1s0x375a4593958f5cf3:0xa45d5b815334df23!8m2!3d26.1421896!4d91.6641486?authuser=0&hl=en&rclk=1,26.1421896,91.6641486,Assam,East
Nutrition Rehabilitation Centre,Rehabilitation center,"Khaigarh, Nagaon, NH-37, Nagaon, Nagaon, Assam 782103, India",https://www.google.co.kr/maps/place/Nutrition+Rehabilitation+Centre/data=!4m5!3m4!1s0x37452e78660bff6f:0xd86470863607daf8!8m2!3d26.2458452!4d92.5405411?authuser=0&hl=en&rclk=1,26.2458452,92.5405411,Assam,East
Atal Amrit Abhiyan Society Assam,Government economic program,"3rd floor,nayantara supermarket, Six Mile, Guwahati, Assam 781036, India",https://www.google.co.kr/maps/place/Atal+Amrit+Abhiyan+Society+Assam/data=!4m5!3m4!1s0x375a59eaa19ee6bf:0x39cbb44e807163e7!8m2!3d26.13261!4d91.8070123?authuser=0&hl=en&rclk=1,26.13261,91.8070123,Assam,East
Lakshya J Basumatary - Best Neurologist in Guwahati,Neurologist,"NH37, Pragjyotish Nagar, Maligaon, Guwahati, Assam 781033, India",https://www.google.co.kr/maps/place/Lakshya+J+Basumatary+-+Best+Neurologist+in+Guwahati/data=!4m5!3m4!1s0x375a5b80e2fc83cd:0xa01f263783236672!8m2!3d26.1525934!4d91.6847121?authuser=0&hl=en&rclk=1,26.1525934,91.6847121,Assam,East
Bishal Medical,Doctor,"8MX9+FMP, Sandanpur, Nagaon, Assam 782002, India",https://www.google.co.kr/maps/place/Bishal+Medical/data=!4m5!3m4!1s0x3745270288197c57:0xebf7a21e03d08cae!8m2!3d26.3487177!4d92.669212?authuser=0&hl=en&rclk=1,26.3487177,92.669212,Assam,East
Pragati Medicine Point,Medical Center,"Pragati medicine point, Haibargaon, Nagaon, Assam 782002, India",https://www.google.co.kr/maps/place/Pragati+Medicine+Point/data=!4m5!3m4!1s0x374527d2056082e5:0x8749388dbfdda8b5!8m2!3d26.3502277!4d92.6783064?authuser=0&hl=en&rclk=1,26.3502277,92.6783064,Assam,East
Sindhu Medical,Medical Center,"9M3W+MH6, Panigaon Chariyali, Nagaon, Assam 782001, India",https://www.google.co.kr/maps/place/Sindhu+Medical/data=!4m5!3m4!1s0x3745272c8d1adfb1:0x35d3caf591c9e226!8m2!3d26.3541604!4d92.6963972?authuser=0&hl=en&rclk=1,26.3541604,92.6963972,Assam,East
Dr. Subhash Khanna,Gastrointestinal surgeon,"Assam Trunk Rd, Maligaon, Guwahati, Assam 781010, India",https://www.google.co.kr/maps/place/Dr.+Subhash+Khanna/data=!4m5!3m4!1s0x375a5bcadafe3351:0xe42178408ab19bfb!8m2!3d26.160339!4d91.707445?authuser=0&hl=en&rclk=1,26.160339,91.707445,Assam,East
Panacea Diagnostic And Clinic,Doctor,"9M3Q+X43, Nagaon, Assam 782001, India",https://www.google.co.kr/maps/place/Panacea+Diagnostic+And+Clinic/data=!4m5!3m4!1s0x3745272591ef3765:0x599158289b42e55!8m2!3d26.3548896!4d92.6877813?authuser=0&hl=en&rclk=1,26.3548896,92.6877813,Assam,East
St. John's Hospital,General hospital,"GMC Hostel Rd, Christian Basti, Guwahati, Assam 781005, India",https://www.google.co.kr/maps/place/St.+John's+Hospital/data=!4m5!3m4!1s0x375a59130a72e479:0xe11558e47003cf81!8m2!3d26.1562364!4d91.7756576?authuser=0&hl=en&rclk=1,26.1562364,91.7756576,Assam,East
ESIC Model Hospital,Government hospital,"Pir Ajan Fakir Rd, Near Khanara Kendra Vidyalaya, Resham Nagar, Khanapara, Guwahati, Assam 781022, India",https://www.google.co.kr/maps/place/ESIC+Model+Hospital/data=!4m5!3m4!1s0x375a5f345884cb7b:0xa45df60086ce31c5!8m2!3d26.1218903!4d91.8082201?authuser=0&hl=en&rclk=1,26.1218903,91.8082201,Assam,East
Raj Medicity,Private hospital,"North A.O.C, Imphal, Manipur 795001, India",https://www.google.co.kr/maps/place/Raj+Medicity/data=!4m5!3m4!1s0x374927a897983d57:0x9a27943afe37e514!8m2!3d24.8160364!4d93.9433619?authuser=0&hl=en&rclk=1,24.8160364,93.9433619,Manipur,East
Catholic Medical Centre (CMC Hospital),Government hospital,"Koirengei, Imphal East -, Koirengei, Manipur 795002, India",https://www.google.co.kr/maps/place/Catholic+Medical+Centre+(CMC+Hospital)/data=!4m5!3m4!1s0x3748d83bfe4a6a2f:0x6e48d1e08ad6732d!8m2!3d24.882947!4d93.9210043?authuser=0&hl=en&rclk=1,24.882947,93.9210043,Manipur,East
"Thoubal District Hospital, Khangabok",Hospital,"Khangabok Hospital Rd, Part I, Mamang Leikai, Khangabok, Manipur 795138, India","https://www.google.co.kr/maps/place/Thoubal+District+Hospital,+Khangabok/data=!4m5!3m4!1s0x37493c8ad0b62265:0x9c40d39e15d59e04!8m2!3d24.6251328!4d94.0128097?authuser=0&hl=en&rclk=1",24.6251328,94.0128097,Manipur,East
"Plastic Surgery ward, RIMS, Imphal",Hospital,"RIMS Rd, Imphal, Manipur 795004, India","https://www.google.co.kr/maps/place/Plastic+Surgery+ward,+RIMS,+Imphal/data=!4m5!3m4!1s0x3749279a92cf306d:0xd7513dd334a1791!8m2!3d24.8137659!4d93.9246039?authuser=0&hl=en&rclk=1",24.8137659,93.9246039,Manipur,East
LAMJINGBA Hospital,Hospital,"RW6F+XHW, Uripok, Imphal, Manipur 795004, India",https://www.google.co.kr/maps/place/LAMJINGBA+Hospital/data=!4m5!3m4!1s0x3749274738921f5b:0xbff09cc9a90ab7d9!8m2!3d24.8124895!4d93.9239594?authuser=0&hl=en&rclk=1,24.8124895,93.9239594,Manipur,East
Shija ENT Hospital,Hospital,"Lamphel Rd, Thangmeiband, Imphal, Manipur 795001, India",https://www.google.co.kr/maps/place/Shija+ENT+Hospital/data=!4m5!3m4!1s0x374927bc26dbb023:0xc5c124e2f99677d0!8m2!3d24.8249769!4d93.9319333?authuser=0&hl=en&rclk=1,24.8249769,93.9319333,Manipur,East
Leishiphung Hospital,Hospital,"Khararphung,, Ukhrul, Manipur, India",https://www.google.co.kr/maps/place/Leishiphung+Hospital/data=!4m5!3m4!1s0x3748f5d94a78d84b:0xd59985648cca4938!8m2!3d25.1291278!4d94.3717467?authuser=0&hl=en&rclk=1,25.1291278,94.3717467,Manipur,East
PFA Manipur,Hospital,"JXVV+XW9, Ward Number 1, Wangmataba, Thoubal, Manipur 795138, India",https://www.google.co.kr/maps/place/PFA+Manipur/data=!4m5!3m4!1s0x37493ca467d46131:0xe7d2f31d6c022a9c!8m2!3d24.6449236!4d93.9948747?authuser=0&hl=en&rclk=1,24.6449236,93.9948747,Manipur,East
Maipakpi Maternity and Child Hospital,Maternity hospital,"Indo Mayanmar Road, Near Classic Hostel, North AOC Petrol Pump, Imphal, Manipur 795001, India",https://www.google.co.kr/maps/place/Maipakpi+Maternity+and+Child+Hospital/data=!4m5!3m4!1s0x374927a8b85450ab:0xaa0bb8236ae3056!8m2!3d24.8154502!4d93.9426866?authuser=0&hl=en&rclk=1,24.8154502,93.9426866,Manipur,East
Regional Institute of Medical Sciences,Hospital,"Lamphel Rd, Lamphelpat, Imphal, Manipur 795004, India",https://www.google.co.kr/maps/place/Regional+Institute+of+Medical+Sciences/data=!4m5!3m4!1s0x374927c8c3319919:0x6900e9cc97a1edd7!8m2!3d24.8158998!4d93.9228051?authuser=0&hl=en&rclk=1,24.8158998,93.9228051,Manipur,East
Langol View Clinic,Hospital,"Uripok, Imphal, Manipur 795004, India",https://www.google.co.kr/maps/place/Langol+View+Clinic/data=!4m5!3m4!1s0x374927c976764091:0x2c2a93f04663351d!8m2!3d24.8124895!4d93.9239594?authuser=0&hl=en&rclk=1,24.8124895,93.9239594,Manipur,East
Jnims Staff Quarter,Hospital,"RX77+8XC, Porompat, Manipur 795010, India",https://www.google.co.kr/maps/place/Jnims+Staff+Quarter/data=!4m5!3m4!1s0x3749271855555555:0x24a37b343952509d!8m2!3d24.8133107!4d93.964887?authuser=0&hl=en&rclk=1,24.8133107,93.964887,Manipur,East
Advanced Hospital,Hospital,"Palace Compound, Wangkhei, Imphal, Manipur 795001, India",https://www.google.co.kr/maps/place/Advanced+Hospital/data=!4m5!3m4!1s0x3749265611f63dd5:0x4a93c743f29b839e!8m2!3d24.7981401!4d93.9461518?authuser=0&hl=en&rclk=1,24.7981401,93.9461518,Manipur,East
Asian Hospital,Hospital,"Kwakeithel Makha, Lourembam Leikai, Imphal, Manipur 795004, India",https://www.google.co.kr/maps/place/Asian+Hospital/data=!4m5!3m4!1s0x374926394dc8584b:0x74a9cfab922cafa2!8m2!3d24.7879265!4d93.9223702?authuser=0&hl=en&rclk=1,24.7879265,93.9223702,Manipur,East
OPD RIMS IMPHAL,Hospital,"RW7F+WP4, Imphal, Manipur 795004, India",https://www.google.co.kr/maps/place/OPD+RIMS+IMPHAL/data=!4m5!3m4!1s0x374927c8569f3131:0x8a67bdde2a6f2650!8m2!3d24.8147674!4d93.9243346?authuser=0&hl=en&rclk=1,24.8147674,93.9243346,Manipur,East
"District Hospital, Bishnupur",Hospital,"NH-150, Tengkhal Khunou, Manipur 795126, India","https://www.google.co.kr/maps/place/District+Hospital,+Bishnupur/data=!4m5!3m4!1s0x374932dd2cb7514f:0x9440110c8c5a037e!8m2!3d24.6319257!4d93.7620137?authuser=0&hl=en&rclk=1",24.6319257,93.7620137,Manipur,East
JNIMS Hospital OPD Block,Hospital,"JNIMS Rd, Khongnang Makhong, Lairikyengbam Leikai, Manipur 795010, India",https://www.google.co.kr/maps/place/JNIMS+Hospital+OPD+Block/data=!4m5!3m4!1s0x3749271be165ea01:0x797c195657da24dc!8m2!3d24.8113124!4d93.9622563?authuser=0&hl=en&rclk=1,24.8113124,93.9622563,Manipur,East
Charitable Hospital Moirang,Hospital,"Hemam Leikai, Moirang, Manipur 795133, India",https://www.google.co.kr/maps/place/Charitable+Hospital+Moirang/data=!4m5!3m4!1s0x37493572bc41c857:0xea43c286625710a0!8m2!3d24.4998198!4d93.7748484?authuser=0&hl=en&rclk=1,24.4998198,93.7748484,Manipur,East
Chamber Hospital,Hospital,"near yaiphaba hotel, Manipur, India",https://www.google.co.kr/maps/place/Chamber+Hospital/data=!4m5!3m4!1s0x374927b20e4e1e5d:0x8dd9c2768cf65c5a!8m2!3d24.8097098!4d93.9365982?authuser=0&hl=en&rclk=1,24.8097098,93.9365982,Manipur,East
Remedy Hospital,Hospital,"Nityaiband Chuthek - Konung Mamang Rd, Angom Colony, Imphal, Manipur 795001, India",https://www.google.co.kr/maps/place/Remedy+Hospital/data=!4m5!3m4!1s0x374926ff8facc3d5:0x6b5429d11c3ca96a!8m2!3d24.802856!4d93.9475089?authuser=0&hl=en&rclk=1,24.802856,93.9475089,Manipur,East
TB and Leprosy Hospital,Hospital,"PX3V+QM5, Keirao-Wangkhem, Manipur 795130, India",https://www.google.co.kr/maps/place/TB+and+Leprosy+Hospital/data=!4m5!3m4!1s0x3749237940000007:0xbd19e9e88b382ada!8m2!3d24.7043857!4d93.994221?authuser=0&hl=en&rclk=1,24.7043857,93.994221,Manipur,East
Imphal Heart Institute,Hospital,"Sagolband, Imphal, Manipur 795004, India",https://www.google.co.kr/maps/place/Imphal+Heart+Institute/data=!4m5!3m4!1s0x3749264a9c7bc141:0x55604e8d841112ee!8m2!3d24.8034127!4d93.9269448?authuser=0&hl=en&rclk=1,24.8034127,93.9269448,Manipur,East
Assam Rifles Hospital,Hospital,"F2W3+8QC, Kakching, Manipur 795103, India",https://www.google.co.kr/maps/place/Assam+Rifles+Hospital/data=!4m5!3m4!1s0x37493f3f5d5b7b1b:0xbb2d42b9ce1e1abf!8m2!3d24.4958143!4d94.0043962?authuser=0&hl=en&rclk=1,24.4958143,94.0043962,Manipur,East
Christian Hospital,Hospital,"RWFW+X44, Khongnang Ani Karak, Kabo Leika, Imphal, Manipur 795001, India",https://www.google.co.kr/maps/place/Christian+Hospital/data=!4m5!3m4!1s0x374927a0ee30442f:0x544f4c0f9f64d240!8m2!3d24.824882!4d93.9453202?authuser=0&hl=en&rclk=1,24.824882,93.9453202,Manipur,East
Jivan Hospital,Hospital,"Kakching, Manipur 795103, India",https://www.google.co.kr/maps/place/Jivan+Hospital/data=!4m5!3m4!1s0x37493f3f4ea09cf9:0x62f6e7b34b6c32df!8m2!3d24.4961993!4d94.0034719?authuser=0&hl=en&rclk=1,24.4961993,94.0034719,Manipur,East
Ninghthoukhong Hospital,Hospital,"HQG7+5H8, Ningthoukhong, Manipur 795126, India",https://www.google.co.kr/maps/place/Ninghthoukhong+Hospital/data=!4m5!3m4!1s0x374933607fd5c8c5:0x95d454f91d925cf6!8m2!3d24.5754225!4d93.7639684?authuser=0&hl=en&rclk=1,24.5754225,93.7639684,Manipur,East
"District Hospital, Imphal West",Hospital,"I.B. Rd, Mayang Imphal, Manipur 795132, India","https://www.google.co.kr/maps/place/District+Hospital,+Imphal+West/data=!4m5!3m4!1s0x374930f3ac937ec1:0x63202d6c96c8072a!8m2!3d24.6081159!4d93.8829606?authuser=0&hl=en&rclk=1",24.6081159,93.8829606,Manipur,East
Primary Health Center,Hospital,"RXV5+7R4, Imphal, Manipur 795010, India",https://www.google.co.kr/maps/place/Primary+Health+Center/data=!4m5!3m4!1s0x374927d807b35757:0x84e57807ad3c4d2d!8m2!3d24.8431347!4d93.9595735?authuser=0&hl=en&rclk=1,24.8431347,93.9595735,Manipur,East
Shija Clinic,Hospital,"J2P3+Q63, Meira Paibi, Thoubal, Manipur 795138, India",https://www.google.co.kr/maps/place/Shija+Clinic/data=!4m5!3m4!1s0x37493c9607a50a1d:0xf841a33e307f8f72!8m2!3d24.6368793!4d94.0030387?authuser=0&hl=en&rclk=1,24.6368793,94.0030387,Manipur,East
Hawaithang PHC,Hospital,"Imphal - Silchar Rd, Khamnam Leirak, Imphal, Manipur 795004, India",https://www.google.co.kr/maps/place/Hawaithang+PHC/data=!4m5!3m4!1s0x374927d84b0df051:0x3e8523d21a1e4cac!8m2!3d24.7970705!4d93.9095599?authuser=0&hl=en&rclk=1,24.7970705,93.9095599,Manipur,East
"Dept of Anatomy,Phisio,Biochem,RIMS",Hospital,"RW7C+QRW, Imphal, Manipur 795004, India","https://www.google.co.kr/maps/place/Dept+of+Anatomy,Phisio,Biochem,RIMS/data=!4m5!3m4!1s0x374927c8d7c5b561:0x354a3c6c59ef55b2!8m2!3d24.8144984!4d93.9220813?authuser=0&hl=en&rclk=1",24.8144984,93.9220813,Manipur,East
Indian Red cross society office imphal,Hospital,"RW6P+3VC, Thangal Bazar, Imphal, Manipur 795001, India",https://www.google.co.kr/maps/place/Indian+Red+cross+society+office+imphal/data=!4m5!3m4!1s0x374927adf102264f:0x99a14905bc49943e!8m2!3d24.810177!4d93.9371405?authuser=0&hl=en&rclk=1,24.810177,93.9371405,Manipur,East
Moirangkampu PHC,Hospital,"Imphal, Manipur 795005, India",https://www.google.co.kr/maps/place/Moirangkampu+PHC/data=!4m5!3m4!1s0x37492734ae32eed5:0x7d37faa7fb131d36!8m2!3d24.8222893!4d93.9873706?authuser=0&hl=en&rclk=1,24.8222893,93.9873706,Manipur,East
JNIMS Hospital,Hospital,"QWWC+8J5, Sagolband Thangjam Leirak, Sagolband, Porompat, Manipur 795004, India",https://www.google.co.kr/maps/place/JNIMS+Hospital/data=!4m5!3m4!1s0x374927549b69dae1:0xc56908ab519fdab5!8m2!3d24.7957561!4d93.9216181?authuser=0&hl=en&rclk=1,24.7957561,93.9216181,Manipur,East
Piles Clinic & Hospital,Private hospital,"Sabantongba, Thoubal, Manipur, India",https://www.google.co.kr/maps/place/Piles+Clinic+%26+Hospital/data=!4m5!3m4!1s0x37493b454a2fd53f:0x5e8016d46c02671e!8m2!3d24.6486726!4d93.9773596?authuser=0&hl=en&rclk=1,24.6486726,93.9773596,Manipur,East
"Operation Theatre, RIMS",Hospital,"RIMS Rd, Lamphelpat, Imphal, Manipur 795004, India","https://www.google.co.kr/maps/place/Operation+Theatre,+RIMS/data=!4m5!3m4!1s0x374927c91bf40c23:0x31d41a6ab3719a3f!8m2!3d24.8140698!4d93.923204?authuser=0&hl=en&rclk=1",24.8140698,93.923204,Manipur,East
Mangal Hospital,Hospital,"Unnamed Road, Zomi Villa, Ragailong, Imphal, Manipur 795001, India",https://www.google.co.kr/maps/place/Mangal+Hospital/data=!4m5!3m4!1s0x374927c3bd699397:0x60a60e00bfb42ea5!8m2!3d24.8142933!4d93.9478824?authuser=0&hl=en&rclk=1,24.8142933,93.9478824,Manipur,East
Ningshingkhul District Hospital,Government hospital,"Q4HQ+PVR, Ningsingkhun, Jiribam, Manipur 795115, India",https://www.google.co.kr/maps/place/Ningshingkhul+District+Hospital/data=!4m5!3m4!1s0x374efecfc7f9e305:0x426f37beed67b526!8m2!3d24.7793721!4d93.1396263?authuser=0&hl=en&rclk=1,24.7793721,93.1396263,Manipur,East
"Casualty Block, RIMS",Hospital,"RIMS Road, Lamphelpat, Imphal, Manipur 795004, India","https://www.google.co.kr/maps/place/Casualty+Block,+RIMS/data=!4m5!3m4!1s0x374927c84e1d1517:0x11dc6077cd5f7fe0!8m2!3d24.8147881!4d93.9247444?authuser=0&hl=en&rclk=1",24.8147881,93.9247444,Manipur,East
Babina Oncology Hospital,Hospital,"VX2Q+J97, Waiton, Manipur 795010, India",https://www.google.co.kr/maps/place/Babina+Oncology+Hospital/data=!4m5!3m4!1s0x3748df86eaafad1d:0x267524ff6a593e5d!8m2!3d24.8515341!4d93.9884205?authuser=0&hl=en&rclk=1,24.8515341,93.9884205,Manipur,East
District Hospital,Hospital,"DISTRICT HOSPITAL SENAPATI district hospital campus, Manipur 795106, India",https://www.google.co.kr/maps/place/District+Hospital/data=!4m5!3m4!1s0x3748be57b44f00d9:0x9c640f1d769d8fb4!8m2!3d25.2854726!4d94.0301452?authuser=0&hl=en&rclk=1,25.2854726,94.0301452,Manipur,East
SHUV MEDICAL HOSPITAL,Hospital,"RIMS Rd, Uripok, Imphal, Manipur 795001, India",https://www.google.co.kr/maps/place/SHUV+MEDICAL+HOSPITAL/data=!4m5!3m4!1s0x374927c9c7f5fac5:0xdbafec07bd4461c0!8m2!3d24.8135361!4d93.9253784?authuser=0&hl=en&rclk=1,24.8135361,93.9253784,Manipur,East
Rangini Hospital,Hospital,"JVWX+837, Yumnam Huidrom, Manipur 795009, India",https://www.google.co.kr/maps/place/Rangini+Hospital/data=!4m5!3m4!1s0x3749300ddeaa728d:0xf0518c4ecf15dd16!8m2!3d24.6457879!4d93.8976584?authuser=0&hl=en&rclk=1,24.6457879,93.8976584,Manipur,East
DR. Memcha Clinic,Hospital,"F2X7+W35, Kakching, Manipur 795103, India",https://www.google.co.kr/maps/place/DR.+Memcha+Clinic/data=!4m5!3m4!1s0x37493f1411fd8fdb:0x479d891ea77bd0af!8m2!3d24.4997698!4d94.0127205?authuser=0&hl=en&rclk=1,24.4997698,94.0127205,Manipur,East
Public Health Center,Hospital,"PXQH+H99, Leitambi, Manipur 795008, India",https://www.google.co.kr/maps/place/Public+Health+Center/data=!4m5!3m4!1s0x3749240e09da6fe3:0x7579100e5daecd46!8m2!3d24.7389117!4d93.9784784?authuser=0&hl=en&rclk=1,24.7389117,93.9784784,Manipur,East
"Govt. Health Center, Ningombam",Hospital,"PVWX+959, Ningombam, Manipur 795009, India","https://www.google.co.kr/maps/place/Govt.+Health+Center,+Ningombam/data=!4m5!3m4!1s0x37492f5a91d923df:0xc53bf16e3bb5ce80!8m2!3d24.7459224!4d93.8979799?authuser=0&hl=en&rclk=1",24.7459224,93.8979799,Manipur,East
Apollo Scan Clinic,Hospital,"RIMS Rd, near Crown dental, Lalambung Makhong, Uripok, Imphal, Manipur 795004, India",https://www.google.co.kr/maps/place/Apollo+Scan+Clinic/data=!4m5!3m4!1s0x3749278882dc8e61:0xe2759538365c4fef!8m2!3d24.8126632!4d93.9285407?authuser=0&hl=en&rclk=1,24.8126632,93.9285407,Manipur,East
Little Clinic,Hospital,"Nagaram Village, Imphal, Manipur 795010, India",https://www.google.co.kr/maps/place/Little+Clinic/data=!4m5!3m4!1s0x374927e4761ed7db:0x321d583788fb922a!8m2!3d24.8266042!4d93.949884?authuser=0&hl=en&rclk=1,24.8266042,93.949884,Manipur,East
SHARC (Suba Hospital & Assisted Reproductive Centre),Hospital,"RIMS Rd, Kombirei Keithel, Uripok Khumanthem Leikai, Imphal, Manipur 795004, India",https://www.google.co.kr/maps/place/SHARC+(Suba+Hospital+%26+Assisted+Reproductive+Centre)/data=!4m5!3m4!1s0x374927c9974fff45:0x794d75bca1b853a2!8m2!3d24.8126115!4d93.9247845?authuser=0&hl=en&rclk=1,24.8126115,93.9247845,Manipur,East
MI Room,Government hospital,"jail, Manipur central, Imphal, Manipur 795004, India",https://www.google.co.kr/maps/place/MI+Room/data=!4m5!3m4!1s0x3749277df89c1431:0x11b695546e332c5f!8m2!3d24.7998664!4d93.9376817?authuser=0&hl=en&rclk=1,24.7998664,93.9376817,Manipur,East
Health Sub Center,Hospital,"RIMS Doctors Colony, Lamphelpat, Ningombam, Manipur 795009, India",https://www.google.co.kr/maps/place/Health+Sub+Center/data=!4m5!3m4!1s0x37492f5a91df722d:0x3477e267b6c2d5ce!8m2!3d24.7459081!4d93.8979873?authuser=0&hl=en&rclk=1,24.7459081,93.8979873,Manipur,East
Health Centre,Hospital,"QW2G+PM8, Imphal, Manipur 795003, India",https://www.google.co.kr/maps/place/Health+Centre/data=!4m5!3m4!1s0x374925ddf8d3933b:0x683c76beb7190234!8m2!3d24.751786!4d93.9267139?authuser=0&hl=en&rclk=1,24.751786,93.9267139,Manipur,East
Dr. Basanta Clinic,Children's hospital,"QWW2+QFW, Takyel, Imphal, Manipur 795004, India",https://www.google.co.kr/maps/place/Dr.+Basanta+Clinic/data=!4m5!3m4!1s0x374928837e2e1977:0xb16625472817d407!8m2!3d24.7969887!4d93.9012127?authuser=0&hl=en&rclk=1,24.7969887,93.9012127,Manipur,East
"Dept.of Micro, Pharma& Pathology,RIMS",Hospital,"RW7F+P4H, Imphal, Manipur 795004, India","https://www.google.co.kr/maps/place/Dept.of+Micro,+Pharma%26+Pathology,RIMS/data=!4m5!3m4!1s0x374927c91fdb6d2b:0xd83903e8f6692a4e!8m2!3d24.8143209!4d93.9228607?authuser=0&hl=en&rclk=1",24.8143209,93.9228607,Manipur,East
